$GNGGA,080439.78,,,,,0,17,0.8,,,,,,*7F
$GNGGA,080439.80,,,,,0,17,0.8,,,,,,*78
$GNGGA,080439.80,,,,,0,17,0.8,,,,,,*78
$GNRMC,080439.80,V,,,,,,,050426,0.0,E,N,V*79
$GNGST,080439.80,4.27,3.22,1.94,126.7223,2.408,2.754,2.991*41
$GNGGA,080439.82,,,,,0,17,0.8,,,,,,*7A
$GNGGA,080439.84,,,,,0,17,0.8,,,,,,*7C
$GNGGA,080439.86,,,,,0,17,0.8,,,,,,*7E
$GNGGA,080439.88,,,,,0,17,0.8,,,,,,*70
$GNGGA,080439.90,,,,,0,17,0.8,,,,,,*79
$GNGGA,080439.90,,,,,0,17,0.8,,,,,,*79
$GNRMC,080439.90,V,,,,,,,050426,0.0,E,N,V*78
$GNGST,080439.90,4.27,3.22,1.94,126.7223,2.408,2.754,2.991*40
$GNGGA,080439.92,,,,,0,17,0.8,,,,,,*7B
$GNGGA,080439.94,,,,,0,17,0.8,,,,,,*7D
$GNGGA,080439.96,,,,,0,17,0.8,,,,,,*7F
$GNGGA,080439.98,,,,,0,17,0.8,,,,,,*71
$GNGGA,080440.00,4901.87092756,N,00821.78717620,E,1,16,0.8,111.7903,M,48.3897,M,,*7D
$GNGGA,080440.00,4901.87092756,N,00821.78717620,E,1,16,0.8,111.7903,M,48.3897,M,,*7D
$GNGSA,M,3,11,12,18,25,29,,,,,,,,1.3,0.8,1.0,1*30
$GNGSA,M,3,15,27,29,30,34,36,,,,,,,1.3,0.8,1.0,3*3F
$GNGSA,M,3,23,27,28,37,43,,,,,,,,1.3,0.8,1.0,4*3E
$GNRMC,080440.00,A,4901.87092756,N,00821.78717620,E,0.103,306.6,050426,3.1,E,A,C*47
$GNGST,080440.00,4.81,3.62,1.99,122.5287,2.519,3.172,3.168*47
$GPGSV,2,1,07,11,24,045,35,29,84,199,26,25,62,099,33,18,15,177,39,1*66
$GPGSV,2,2,07,12,22,099,29,31,38,304,15,28,59,271,22,1*53
$GPGSV,2,1,07,11,24,045,21,29,84,199,32,25,62,099,22,18,15,177,40,4*6D
$GPGSV,2,2,07,12,22,099,23,31,38,304,19,28,59,271,25,4*57
$GPGSV,1,1,04,11,24,045,32,25,62,099,24,18,15,177,42,28,59,271,30,8*61
$GBGSV,2,1,05,23,26,131,37,27,35,199,38,28,68,144,42,37,78,160,37,1*70
$GBGSV,2,2,05,43,32,053,32,1*42
$GBGSV,2,1,05,23,26,131,38,27,35,199,30,28,68,144,40,37,78,160,38,3*78
$GBGSV,2,2,05,43,32,053,30,3*42
$GBGSV,1,1,04,23,26,131,33,27,35,199,37,28,68,144,27,37,78,160,31,5*78
$GBGSV,1,1,04,23,26,131,42,27,35,199,42,28,68,144,37,37,78,160,35,8*74
$GAGSV,2,1,06,30,54,087,32,36,15,032,19,29,26,256,34,15,30,148,39,1*7D
$GAGSV,2,2,06,34,42,082,17,27,68,297,31,1*7B
$GAGSV,2,1,06,30,54,087,38,36,15,032,19,29,26,256,31,15,30,148,39,2*71
$GAGSV,2,2,06,34,42,082,20,27,68,297,29,2*75
$GAGSV,2,1,06,30,54,087,34,36,15,032,24,29,26,256,19,15,30,148,39,7*7C
$GAGSV,2,2,06,34,42,082,32,27,68,297,23,7*79
$GNGGA,080440.02,,,,,0,16,0.8,,,,,,*7D
$GNGGA,080440.04,,,,,0,16,0.8,,,,,,*7B
$GNGGA,080440.06,,,,,0,16,0.8,,,,,,*79
$GNGGA,080440.08,,,,,0,16,0.8,,,,,,*77
$GNGGA,080440.10,,,,,0,16,0.8,,,,,,*7E
$GNGGA,080440.10,,,,,0,16,0.8,,,,,,*7E
$GNRMC,080440.10,V,,,,,,,050426,0.0,E,N,V*7E
$GNGST,080440.10,4.81,3.62,1.99,122.5287,2.519,3.172,3.168*46
$GNGGA,080440.12,,,,,0,16,0.8,,,,,,*7C
$GNGGA,080440.14,,,,,0,16,0.8,,,,,,*7A
$GNGGA,080440.16,,,,,0,16,0.8,,,,,,*78
$GNGGA,080440.18,,,,,0,16,0.8,,,,,,*76
$GNGGA,080440.20,,,,,0,16,0.8,,,,,,*7D
$GNGGA,080440.20,,,,,0,16,0.8,,,,,,*7D
$GNRMC,080440.20,V,,,,,,,050426,0.0,E,N,V*7D
$GNGST,080440.20,4.81,3.62,1.99,122.5287,2.519,3.172,3.168*45
$GNGGA,080440.22,,,,,0,16,0.8,,,,,,*7F
$GNGGA,080440.24,,,,,0,16,0.8,,,,,,*79
$GNGGA,080440.26,,,,,0,16,0.8,,,,,,*7B
$GNGGA,080440.28,,,,,0,16,0.8,,,,,,*75
$GNGGA,080440.30,,,,,0,16,0.8,,,,,,*7C
$GNGGA,080440.30,,,,,0,16,0.8,,,,,,*7C
$GNRMC,080440.30,V,,,,,,,050426,0.0,E,N,V*7C
$GNGST,080440.30,4.81,3.62,1.99,122.5287,2.519,3.172,3.168*44
$GNGGA,080440.32,,,,,0,16,0.8,,,,,,*7E
$GNGGA,080440.34,,,,,0,16,0.8,,,,,,*78
$GNGGA,080440.36,,,,,0,16,0.8,,,,,,*7A
$GNGGA,080440.38,,,,,0,16,0.8,,,,,,*74
$GNGGA,080440.40,,,,,0,16,0.8,,,,,,*7B
$GNGGA,080440.40,,,,,0,16,0.8,,,,,,*7B
$GNRMC,080440.40,V,,,,,,,050426,0.0,E,N,V*7B
$GNGST,080440.40,4.81,3.62,1.99,122.5287,2.519,3.172,3.168*43
$GNGGA,080440.42,,,,,0,16,0.8,,,,,,*79
$GNGGA,080440.44,,,,,0,16,0.8,,,,,,*7F
$GNGGA,080440.46,,,,,0,16,0.8,,,,,,*7D
$GNGGA,080440.48,,,,,0,16,0.8,,,,,,*73
$GNGGA,080440.50,,,,,0,16,0.8,,,,,,*7A
$GNGGA,080440.50,,,,,0,16,0.8,,,,,,*7A
$GNRMC,080440.50,V,,,,,,,050426,0.0,E,N,V*7A
$GNGST,080440.50,4.81,3.62,1.99,122.5287,2.519,3.172,3.168*42
$GNGGA,080440.52,,,,,0,16,0.8,,,,,,*78
$GNGGA,080440.54,,,,,0,16,0.8,,,,,,*7E
$GNGGA,080440.56,,,,,0,16,0.8,,,,,,*7C
$GNGGA,080440.58,,,,,0,16,0.8,,,,,,*72
$GNGGA,080440.60,,,,,0,16,0.8,,,,,,*79
$GNGGA,080440.60,,,,,0,16,0.8,,,,,,*79
$GNRMC,080440.60,V,,,,,,,050426,0.0,E,N,V*79
$GNGST,080440.60,4.81,3.62,1.99,122.5287,2.519,3.172,3.168*41
$GNGGA,080440.62,,,,,0,16,0.8,,,,,,*7B
$GNGGA,080440.64,,,,,0,16,0.8,,,,,,*7D
$GNGGA,080440.66,,,,,0,16,0.8,,,,,,*7F
$GNGGA,080440.68,,,,,0,16,0.8,,,,,,*71
$GNGGA,080440.70,,,,,0,16,0.8,,,,,,*78
$GNGGA,080440.70,,,,,0,16,0.8,,,,,,*78
$GNRMC,080440.70,V,,,,,,,050426,0.0,E,N,V*78
$GNGST,080440.70,4.81,3.62,1.99,122.5287,2.519,3.172,3.168*40
$GNGGA,080440.72,,,,,0,16,0.8,,,,,,*7A
$GNGGA,080440.74,,,,,0,16,0.8,,,,,,*7C
$GNGGA,080440.76,,,,,0,16,0.8,,,,,,*7E
$GNGGA,080440.78,,,,,0,16,0.8,,,,,,*70
$GNGGA,080440.80,,,,,0,16,0.8,,,,,,*77
$GNGGA,080440.80,,,,,0,16,0.8,,,,,,*77
$GNRMC,080440.80,V,,,,,,,050426,0.0,E,N,V*77
$GNGST,080440.80,4.81,3.62,1.99,122.5287,2.519,3.172,3.168*4F
$GNGGA,080440.82,,,,,0,16,0.8,,,,,,*75
$GNGGA,080440.84,,,,,0,16,0.8,,,,,,*73
$GNGGA,080440.86,,,,,0,16,0.8,,,,,,*71
$GNGGA,080440.88,,,,,0,16,0.8,,,,,,*7F
$GNGGA,080440.90,,,,,0,16,0.8,,,,,,*76
$GNGGA,080440.90,,,,,0,16,0.8,,,,,,*76
$GNRMC,080440.90,V,,,,,,,050426,0.0,E,N,V*76
$GNGST,080440.90,4.81,3.62,1.99,122.5287,2.519,3.172,3.168*4E
$GNGGA,080440.92,,,,,0,16,0.8,,,,,,*74
$GNGGA,080440.94,,,,,0,16,0.8,,,,,,*72
$GNGGA,080440.96,,,,,0,16,0.8,,,,,,*70
$GNGGA,080440.98,,,,,0,16,0.8,,,,,,*7E
$GNGGA,080441.00,4901.87097421,N,00821.78713843,E,1,15,0.9,111.7014,M,48.3897,M,,*78
$GNGGA,080441.00,4901.87097421,N,00821.78713843,E,1,15,0.9,111.7014,M,48.3897,M,,*78
$GNGSA,M,3,11,12,18,25,29,,,,,,,,1.5,0.9,1.2,1*35
$GNGSA,M,3,15,27,29,30,34,,,,,,,,1.5,0.9,1.2,3*3F
$GNGSA,M,3,23,27,28,37,43,,,,,,,,1.5,0.9,1.2,4*3B
$GNRMC,080441.00,A,4901.87097421,N,00821.78713843,E,0.235,353.4,050426,3.1,E,A,C*4B
$GNGST,080441.00,3.40,3.56,2.01,124.0359,2.570,3.124,3.175*48
$GPGSV,2,1,07,11,24,045,35,29,84,199,25,25,62,099,33,18,15,177,39,1*65
$GPGSV,2,2,07,12,22,099,29,31,38,304,15,28,59,271,23,1*52
$GPGSV,2,1,07,11,24,045,21,29,84,199,31,25,62,099,22,18,15,177,40,4*6E
$GPGSV,2,2,07,12,22,099,22,31,38,304,19,28,59,271,25,4*56
$GPGSV,1,1,04,11,24,045,32,25,62,099,23,18,15,177,42,28,59,271,30,8*66
$GBGSV,2,1,05,23,26,131,37,27,35,199,38,28,68,144,42,37,78,160,37,1*70
$GBGSV,2,2,05,43,32,053,32,1*42
$GBGSV,2,1,05,23,26,131,38,27,35,199,31,28,68,144,40,37,78,160,38,3*79
$GBGSV,2,2,05,43,32,053,30,3*42
$GBGSV,1,1,04,23,26,131,33,27,35,199,37,28,68,144,27,37,78,160,31,5*78
$GBGSV,1,1,04,23,26,131,42,27,35,199,42,28,68,144,37,37,78,160,35,8*74
$GAGSV,2,1,06,30,54,087,31,36,15,032,19,29,26,256,34,15,30,148,39,1*7E
$GAGSV,2,2,06,34,42,082,16,27,68,297,31,1*7A
$GAGSV,2,1,06,30,54,087,37,36,15,032,19,29,26,256,31,15,30,148,38,2*7F
$GAGSV,2,2,06,34,42,082,20,27,68,297,28,2*74
$GAGSV,2,1,06,30,54,087,34,36,15,032,24,29,26,256,19,15,30,148,39,7*7C
$GAGSV,2,2,06,34,42,082,31,27,68,297,23,7*7A
$GNGGA,080441.02,,,,,0,15,0.9,,,,,,*7E
$GNGGA,080441.04,,,,,0,15,0.9,,,,,,*78
$GNGGA,080441.06,,,,,0,15,0.9,,,,,,*7A
$GNGGA,080441.08,,,,,0,15,0.9,,,,,,*74
$GNGGA,080441.10,,,,,0,15,0.9,,,,,,*7D
$GNGGA,080441.10,,,,,0,15,0.9,,,,,,*7D
$GNRMC,080441.10,V,,,,,,,050426,0.0,E,N,V*7F
$GNGST,080441.10,3.40,3.56,2.01,124.0359,2.570,3.124,3.175*49
$GNGGA,080441.12,,,,,0,15,0.9,,,,,,*7F
$GNGGA,080441.14,,,,,0,15,0.9,,,,,,*79
$GNGGA,080441.16,,,,,0,15,0.9,,,,,,*7B
$GNGGA,080441.18,,,,,0,15,0.9,,,,,,*75
$GNGGA,080441.20,,,,,0,15,0.9,,,,,,*7E
$GNGGA,080441.20,,,,,0,15,0.9,,,,,,*7E
$GNRMC,080441.20,V,,,,,,,050426,0.0,E,N,V*7C
$GNGST,080441.20,3.40,3.56,2.01,124.0359,2.570,3.124,3.175*4A
$GNGGA,080441.22,,,,,0,15,0.9,,,,,,*7C
$GNGGA,080441.24,,,,,0,15,0.9,,,,,,*7A
$GNGGA,080441.26,,,,,0,15,0.9,,,,,,*78
$GNGGA,080441.28,,,,,0,15,0.9,,,,,,*76
$GNGGA,080441.30,,,,,0,15,0.9,,,,,,*7F
$GNGGA,080441.30,,,,,0,15,0.9,,,,,,*7F
$GNRMC,080441.30,V,,,,,,,050426,0.0,E,N,V*7D
$GNGST,080441.30,3.40,3.56,2.01,124.0359,2.570,3.124,3.175*4B
$GNGGA,080441.32,,,,,0,15,0.9,,,,,,*7D
$GNGGA,080441.34,,,,,0,15,0.9,,,,,,*7B
$GNGGA,080441.36,,,,,0,15,0.9,,,,,,*79
$GNGGA,080441.38,,,,,0,15,0.9,,,,,,*77
$GNGGA,080441.40,,,,,0,15,0.9,,,,,,*78
$GNGGA,080441.40,,,,,0,15,0.9,,,,,,*78
$GNRMC,080441.40,V,,,,,,,050426,0.0,E,N,V*7A
$GNGST,080441.40,3.40,3.56,2.01,124.0359,2.570,3.124,3.175*4C
$GNGGA,080441.42,,,,,0,15,0.9,,,,,,*7A
$GNGGA,080441.44,,,,,0,15,0.9,,,,,,*7C
$GNGGA,080441.46,,,,,0,15,0.9,,,,,,*7E
$GNGGA,080441.48,,,,,0,15,0.9,,,,,,*70
$GNGGA,080441.50,,,,,0,15,0.9,,,,,,*79
$GNGGA,080441.50,,,,,0,15,0.9,,,,,,*79
$GNRMC,080441.50,V,,,,,,,050426,0.0,E,N,V*7B
$GNGST,080441.50,3.40,3.56,2.01,124.0359,2.570,3.124,3.175*4D
$GNGGA,080441.52,,,,,0,15,0.9,,,,,,*7B
$GNGGA,080441.54,,,,,0,15,0.9,,,,,,*7D
$GNGGA,080441.56,,,,,0,15,0.9,,,,,,*7F
$GNGGA,080441.58,,,,,0,15,0.9,,,,,,*71
$GNGGA,080441.60,,,,,0,15,0.9,,,,,,*7A
$GNGGA,080441.60,,,,,0,15,0.9,,,,,,*7A
$GNRMC,080441.60,V,,,,,,,050426,0.0,E,N,V*78
$GNGST,080441.60,3.40,3.56,2.01,124.0359,2.570,3.124,3.175*4E
$GNGGA,080441.62,,,,,0,15,0.9,,,,,,*78
$GNGGA,080441.64,,,,,0,15,0.9,,,,,,*7E
$GNGGA,080441.66,,,,,0,15,0.9,,,,,,*7C
$GNGGA,080441.68,,,,,0,15,0.9,,,,,,*72
$GNGGA,080441.70,,,,,0,15,0.9,,,,,,*7B
$GNGGA,080441.70,,,,,0,15,0.9,,,,,,*7B
$GNRMC,080441.70,V,,,,,,,050426,0.0,E,N,V*79
$GNGST,080441.70,3.40,3.56,2.01,124.0359,2.570,3.124,3.175*4F
$GNGGA,080441.72,,,,,0,15,0.9,,,,,,*79
$GNGGA,080441.74,,,,,0,15,0.9,,,,,,*7F
$GNGGA,080441.76,,,,,0,15,0.9,,,,,,*7D
$GNGGA,080441.78,,,,,0,15,0.9,,,,,,*73
$GNGGA,080441.80,,,,,0,15,0.9,,,,,,*74
$GNGGA,080441.80,,,,,0,15,0.9,,,,,,*74
$GNRMC,080441.80,V,,,,,,,050426,0.0,E,N,V*76
$GNGST,080441.80,3.40,3.56,2.01,124.0359,2.570,3.124,3.175*40
$GNGGA,080441.82,,,,,0,15,0.9,,,,,,*76
$GNGGA,080441.84,,,,,0,15,0.9,,,,,,*70
$GNGGA,080441.86,,,,,0,15,0.9,,,,,,*72
$GNGGA,080441.88,,,,,0,15,0.9,,,,,,*7C
$GNGGA,080441.90,,,,,0,15,0.9,,,,,,*75
$GNGGA,080441.90,,,,,0,15,0.9,,,,,,*75
$GNRMC,080441.90,V,,,,,,,050426,0.0,E,N,V*77
$GNGST,080441.90,3.40,3.56,2.01,124.0359,2.570,3.124,3.175*41
$GNGGA,080441.92,,,,,0,15,0.9,,,,,,*77
$GNGGA,080441.94,,,,,0,15,0.9,,,,,,*71
$GNGGA,080441.96,,,,,0,15,0.9,,,,,,*73
$GNGGA,080441.98,,,,,0,15,0.9,,,,,,*7D
$GNGGA,080442.00,4901.87104050,N,00821.78705310,E,1,16,0.8,111.6746,M,48.3897,M,,*7B
$GNGGA,080442.00,4901.87104050,N,00821.78705310,E,1,16,0.8,111.6746,M,48.3897,M,,*7B
$GNGSA,M,3,11,12,18,25,29,,,,,,,,1.3,0.8,1.0,1*30
$GNGSA,M,3,15,27,29,30,34,36,,,,,,,1.3,0.8,1.0,3*3F
$GNGSA,M,3,23,27,28,37,43,,,,,,,,1.3,0.8,1.0,4*3E
$GNRMC,080442.00,A,4901.87104050,N,00821.78705310,E,0.323,334.2,050426,3.1,E,A,C*4A
$GNGST,080442.00,4.68,3.55,1.99,123.7546,2.526,3.094,3.146*46
$GPGSV,2,1,07,11,24,045,35,29,84,199,25,25,62,099,33,18,15,177,39,1*65
$GPGSV,2,2,07,12,22,099,29,31,38,304,15,28,59,271,23,1*52
$GPGSV,2,1,07,11,24,045,22,29,84,199,31,25,62,099,22,18,15,177,40,4*6D
$GPGSV,2,2,07,12,22,099,22,31,38,304,20,28,59,271,24,4*5D
$GPGSV,1,1,04,11,24,045,32,25,62,099,23,18,15,177,42,28,59,271,29,8*6E
$GBGSV,2,1,05,23,26,131,37,27,35,199,38,28,68,144,42,37,78,160,37,1*70
$GBGSV,2,2,05,43,32,053,32,1*42
$GBGSV,2,1,05,23,26,131,38,27,35,199,30,28,68,144,40,37,78,160,38,3*78
$GBGSV,2,2,05,43,32,053,30,3*42
$GBGSV,1,1,04,23,26,131,33,27,35,199,37,28,68,144,27,37,78,160,31,5*78
$GBGSV,1,1,04,23,26,131,42,27,35,199,42,28,68,144,37,37,78,160,35,8*74
$GAGSV,2,1,06,30,54,087,32,36,15,032,19,29,26,256,34,15,30,148,39,1*7D
$GAGSV,2,2,06,34,42,082,16,27,68,297,31,1*7A
$GAGSV,2,1,06,30,54,087,37,36,15,032,18,29,26,256,31,15,30,148,38,2*7E
$GAGSV,2,2,06,34,42,082,21,27,68,297,28,2*75
$GAGSV,2,1,06,30,54,087,34,36,15,032,25,29,26,256,20,15,30,148,39,7*77
$GAGSV,2,2,06,34,42,082,31,27,68,297,23,7*7A
$GNGGA,080442.02,,,,,0,16,0.8,,,,,,*7F
$GNGGA,080442.04,,,,,0,16,0.8,,,,,,*79
$GNGGA,080442.06,,,,,0,16,0.8,,,,,,*7B
$GNGGA,080442.08,,,,,0,16,0.8,,,,,,*75
$GNGGA,080442.10,,,,,0,16,0.8,,,,,,*7C
$GNGGA,080442.10,,,,,0,16,0.8,,,,,,*7C
$GNRMC,080442.10,V,,,,,,,050426,0.0,E,N,V*7C
$GNGST,080442.10,4.68,3.55,1.99,123.7546,2.526,3.094,3.146*47
$GNGGA,080442.12,,,,,0,16,0.8,,,,,,*7E
$GNGGA,080442.14,,,,,0,16,0.8,,,,,,*78
$GNGGA,080442.16,,,,,0,16,0.8,,,,,,*7A
$GNGGA,080442.18,,,,,0,16,0.8,,,,,,*74
$GNGGA,080442.20,,,,,0,16,0.8,,,,,,*7F
$GNGGA,080442.20,,,,,0,16,0.8,,,,,,*7F
$GNRMC,080442.20,V,,,,,,,050426,0.0,E,N,V*7F
$GNGST,080442.20,4.68,3.55,1.99,123.7546,2.526,3.094,3.146*44
$GNGGA,080442.22,,,,,0,16,0.8,,,,,,*7D
$GNGGA,080442.24,,,,,0,16,0.8,,,,,,*7B
$GNGGA,080442.26,,,,,0,16,0.8,,,,,,*79
$GNGGA,080442.28,,,,,0,16,0.8,,,,,,*77
$GNGGA,080442.30,,,,,0,16,0.8,,,,,,*7E
$GNGGA,080442.30,,,,,0,16,0.8,,,,,,*7E
$GNRMC,080442.30,V,,,,,,,050426,0.0,E,N,V*7E
$GNGST,080442.30,4.68,3.55,1.99,123.7546,2.526,3.094,3.146*45
$GNGGA,080442.32,,,,,0,16,0.8,,,,,,*7C
$GNGGA,080442.34,,,,,0,16,0.8,,,,,,*7A
$GNGGA,080442.36,,,,,0,16,0.8,,,,,,*78
$GNGGA,080442.38,,,,,0,16,0.8,,,,,,*76
$GNGGA,080442.40,,,,,0,16,0.8,,,,,,*79
$GNGGA,080442.40,,,,,0,16,0.8,,,,,,*79
$GNRMC,080442.40,V,,,,,,,050426,0.0,E,N,V*79
$GNGST,080442.40,4.68,3.55,1.99,123.7546,2.526,3.094,3.146*42
$GNGGA,080442.42,,,,,0,16,0.8,,,,,,*7B
$GNGGA,080442.44,,,,,0,16,0.8,,,,,,*7D
$GNGGA,080442.46,,,,,0,16,0.8,,,,,,*7F
$GNGGA,080442.48,,,,,0,16,0.8,,,,,,*71
$GNGGA,080442.50,,,,,0,16,0.8,,,,,,*78
$GNGGA,080442.50,,,,,0,16,0.8,,,,,,*78
$GNRMC,080442.50,V,,,,,,,050426,0.0,E,N,V*78
$GNGST,080442.50,4.68,3.55,1.99,123.7546,2.526,3.094,3.146*43
$GNGGA,080442.52,,,,,0,16,0.8,,,,,,*7A
$GNGGA,080442.54,,,,,0,16,0.8,,,,,,*7C
$GNGGA,080442.56,,,,,0,16,0.8,,,,,,*7E
$GNGGA,080442.58,,,,,0,16,0.8,,,,,,*70
$GNGGA,080442.60,,,,,0,16,0.8,,,,,,*7B
$GNGGA,080442.60,,,,,0,16,0.8,,,,,,*7B
$GNRMC,080442.60,V,,,,,,,050426,0.0,E,N,V*7B
$GNGST,080442.60,4.68,3.55,1.99,123.7546,2.526,3.094,3.146*40
$GNGGA,080442.62,,,,,0,16,0.8,,,,,,*79
$GNGGA,080442.64,,,,,0,16,0.8,,,,,,*7F
$GNGGA,080442.66,,,,,0,16,0.8,,,,,,*7D
$GNGGA,080442.68,,,,,0,16,0.8,,,,,,*73
$GNGGA,080442.70,,,,,0,16,0.8,,,,,,*7A
$GNGGA,080442.70,,,,,0,16,0.8,,,,,,*7A
$GNRMC,080442.70,V,,,,,,,050426,0.0,E,N,V*7A
$GNGST,080442.70,4.68,3.55,1.99,123.7546,2.526,3.094,3.146*41
$GNGGA,080442.72,,,,,0,16,0.8,,,,,,*78
$GNGGA,080442.74,,,,,0,16,0.8,,,,,,*7E
$GNGGA,080442.76,,,,,0,16,0.8,,,,,,*7C
$GNGGA,080442.78,,,,,0,16,0.8,,,,,,*72
$GNGGA,080442.80,,,,,0,16,0.8,,,,,,*75
$GNGGA,080442.80,,,,,0,16,0.8,,,,,,*75
$GNRMC,080442.80,V,,,,,,,050426,0.0,E,N,V*75
$GNGST,080442.80,4.68,3.55,1.99,123.7546,2.526,3.094,3.146*4E
$GNGGA,080442.82,,,,,0,16,0.8,,,,,,*77
$GNGGA,080442.84,,,,,0,16,0.8,,,,,,*71
$GNGGA,080442.86,,,,,0,16,0.8,,,,,,*73
$GNGGA,080442.88,,,,,0,16,0.8,,,,,,*7D
$GNGGA,080442.90,,,,,0,16,0.8,,,,,,*74
$GNGGA,080442.90,,,,,0,16,0.8,,,,,,*74
$GNRMC,080442.90,V,,,,,,,050426,0.0,E,N,V*74
$GNGST,080442.90,4.68,3.55,1.99,123.7546,2.526,3.094,3.146*4F
$GNGGA,080442.92,,,,,0,16,0.8,,,,,,*76
$GNGGA,080442.94,,,,,0,16,0.8,,,,,,*70
$GNGGA,080442.96,,,,,0,16,0.8,,,,,,*72
$GNGGA,080442.98,,,,,0,16,0.8,,,,,,*7C
$GNGGA,080443.00,4901.87100356,N,00821.78707422,E,1,15,0.9,111.6285,M,48.3897,M,,*77
$GNGGA,080443.00,4901.87100356,N,00821.78707422,E,1,15,0.9,111.6285,M,48.3897,M,,*77
$GNGSA,M,3,11,12,18,25,29,,,,,,,,1.5,0.9,1.2,1*35
$GNGSA,M,3,15,27,29,30,34,,,,,,,,1.5,0.9,1.2,3*3F
$GNGSA,M,3,23,27,28,37,43,,,,,,,,1.5,0.9,1.2,4*3B
$GNRMC,080443.00,A,4901.87100356,N,00821.78707422,E,0.126,141.6,050426,3.1,E,A,C*4D
$GNGST,080443.00,3.31,3.57,2.08,127.4311,2.701,3.074,3.220*4C
$GPGSV,2,1,07,11,24,045,34,29,84,199,25,25,62,099,33,18,15,177,39,1*64
$GPGSV,2,2,07,12,22,099,28,31,38,304,15,28,59,271,23,1*53
$GPGSV,2,1,07,11,24,045,22,29,84,199,31,25,62,099,22,18,15,177,40,4*6D
$GPGSV,2,2,07,12,22,099,23,31,38,304,20,28,59,271,25,4*5D
$GPGSV,1,1,04,11,24,045,31,25,62,099,24,18,15,177,41,28,59,271,29,8*69
$GBGSV,2,1,05,23,26,131,37,27,35,199,38,28,68,144,42,37,78,160,37,1*70
$GBGSV,2,2,05,43,32,053,32,1*42
$GBGSV,2,1,05,23,26,131,38,27,35,199,31,28,68,144,40,37,78,160,38,3*79
$GBGSV,2,2,05,43,32,053,30,3*42
$GBGSV,1,1,04,23,26,131,33,27,35,199,37,28,68,144,27,37,78,160,31,5*78
$GBGSV,1,1,04,23,26,131,42,27,35,199,42,28,68,144,37,37,78,160,35,8*74
$GAGSV,2,1,06,30,54,087,32,36,15,032,19,29,26,256,34,15,30,148,39,1*7D
$GAGSV,2,2,06,34,42,082,15,27,68,297,30,1*78
$GAGSV,2,1,06,30,54,087,37,36,15,032,18,29,26,256,30,15,30,148,38,2*7F
$GAGSV,2,2,06,34,42,082,21,27,68,297,27,2*7A
$GAGSV,2,1,06,30,54,087,34,36,15,032,24,29,26,256,21,15,30,148,39,7*77
$GAGSV,2,2,06,34,42,082,31,27,68,297,23,7*7A
$GNGGA,080443.02,,,,,0,15,0.9,,,,,,*7C
$GNGGA,080443.04,,,,,0,15,0.9,,,,,,*7A
$GNGGA,080443.06,,,,,0,15,0.9,,,,,,*78
$GNGGA,080443.08,,,,,0,15,0.9,,,,,,*76
$GNGGA,080443.10,,,,,0,15,0.9,,,,,,*7F
$GNGGA,080443.10,,,,,0,15,0.9,,,,,,*7F
$GNRMC,080443.10,V,,,,,,,050426,0.0,E,N,V*7D
$GNGST,080443.10,3.31,3.57,2.08,127.4311,2.701,3.074,3.220*4D
$GNGGA,080443.12,,,,,0,15,0.9,,,,,,*7D
$GNGGA,080443.14,,,,,0,15,0.9,,,,,,*7B
$GNGGA,080443.16,,,,,0,15,0.9,,,,,,*79
$GNGGA,080443.18,,,,,0,15,0.9,,,,,,*77
$GNGGA,080443.20,,,,,0,15,0.9,,,,,,*7C
$GNGGA,080443.20,,,,,0,15,0.9,,,,,,*7C
$GNRMC,080443.20,V,,,,,,,050426,0.0,E,N,V*7E
$GNGST,080443.20,3.31,3.57,2.08,127.4311,2.701,3.074,3.220*4E
$GNGGA,080443.22,,,,,0,15,0.9,,,,,,*7E
$GNGGA,080443.24,,,,,0,15,0.9,,,,,,*78
$GNGGA,080443.26,,,,,0,15,0.9,,,,,,*7A
$GNGGA,080443.28,,,,,0,15,0.9,,,,,,*74
$GNGGA,080443.30,,,,,0,15,0.9,,,,,,*7D
$GNGGA,080443.30,,,,,0,15,0.9,,,,,,*7D
$GNRMC,080443.30,V,,,,,,,050426,0.0,E,N,V*7F
$GNGST,080443.30,3.31,3.57,2.08,127.4311,2.701,3.074,3.220*4F
$GNGGA,080443.32,,,,,0,15,0.9,,,,,,*7F
$GNGGA,080443.34,,,,,0,15,0.9,,,,,,*79
$GNGGA,080443.36,,,,,0,15,0.9,,,,,,*7B
$GNGGA,080443.38,,,,,0,15,0.9,,,,,,*75
$GNGGA,080443.40,,,,,0,15,0.9,,,,,,*7A
$GNGGA,080443.40,,,,,0,15,0.9,,,,,,*7A
$GNRMC,080443.40,V,,,,,,,050426,0.0,E,N,V*78
$GNGST,080443.40,3.31,3.57,2.08,127.4311,2.701,3.074,3.220*48
$GNGGA,080443.42,,,,,0,15,0.9,,,,,,*78
$GNGGA,080443.44,,,,,0,15,0.9,,,,,,*7E
$GNGGA,080443.46,,,,,0,15,0.9,,,,,,*7C
$GNGGA,080443.48,,,,,0,15,0.9,,,,,,*72
$GNGGA,080443.50,,,,,0,15,0.9,,,,,,*7B
$GNGGA,080443.50,,,,,0,15,0.9,,,,,,*7B
$GNRMC,080443.50,V,,,,,,,050426,0.0,E,N,V*79
$GNGST,080443.50,3.31,3.57,2.08,127.4311,2.701,3.074,3.220*49
$GNGGA,080443.52,,,,,0,15,0.9,,,,,,*79
$GNGGA,080443.54,,,,,0,15,0.9,,,,,,*7F
$GNGGA,080443.56,,,,,0,15,0.9,,,,,,*7D
$GNGGA,080443.58,,,,,0,15,0.9,,,,,,*73
$GNGGA,080443.60,,,,,0,15,0.9,,,,,,*78
$GNGGA,080443.60,,,,,0,15,0.9,,,,,,*78
$GNRMC,080443.60,V,,,,,,,050426,0.0,E,N,V*7A
$GNGST,080443.60,3.31,3.57,2.08,127.4311,2.701,3.074,3.220*4A
$GNGGA,080443.62,,,,,0,15,0.9,,,,,,*7A
$GNGGA,080443.64,,,,,0,15,0.9,,,,,,*7C
$GNGGA,080443.66,,,,,0,15,0.9,,,,,,*7E
$GNGGA,080443.68,,,,,0,15,0.9,,,,,,*70
$GNGGA,080443.70,,,,,0,15,0.9,,,,,,*79
$GNGGA,080443.70,,,,,0,15,0.9,,,,,,*79
$GNRMC,080443.70,V,,,,,,,050426,0.0,E,N,V*7B
$GNGST,080443.70,3.31,3.57,2.08,127.4311,2.701,3.074,3.220*4B
$GNGGA,080443.72,,,,,0,15,0.9,,,,,,*7B
$GNGGA,080443.74,,,,,0,15,0.9,,,,,,*7D
$GNGGA,080443.76,,,,,0,15,0.9,,,,,,*7F
$GNGGA,080443.78,,,,,0,15,0.9,,,,,,*71
$GNGGA,080443.80,,,,,0,15,0.9,,,,,,*76
$GNGGA,080443.80,,,,,0,15,0.9,,,,,,*76
$GNRMC,080443.80,V,,,,,,,050426,0.0,E,N,V*74
$GNGST,080443.80,3.31,3.57,2.08,127.4311,2.701,3.074,3.220*44
$GNGGA,080443.82,,,,,0,15,0.9,,,,,,*74
$GNGGA,080443.84,,,,,0,15,0.9,,,,,,*72
$GNGGA,080443.86,,,,,0,15,0.9,,,,,,*70
$GNGGA,080443.88,,,,,0,15,0.9,,,,,,*7E
$GNGGA,080443.90,,,,,0,15,0.9,,,,,,*77
$GNGGA,080443.90,,,,,0,15,0.9,,,,,,*77
$GNRMC,080443.90,V,,,,,,,050426,0.0,E,N,V*75
$GNGST,080443.90,3.31,3.57,2.08,127.4311,2.701,3.074,3.220*45
$GNGGA,080443.92,,,,,0,15,0.9,,,,,,*75
$GNGGA,080443.94,,,,,0,15,0.9,,,,,,*73
$GNGGA,080443.96,,,,,0,15,0.9,,,,,,*71
$GNGGA,080443.98,,,,,0,15,0.9,,,,,,*7F
$GNGGA,080444.00,4901.87098785,N,00821.78705776,E,1,15,0.9,111.7485,M,48.3897,M,,*7D
$GNGGA,080444.00,4901.87098785,N,00821.78705776,E,1,15,0.9,111.7485,M,48.3897,M,,*7D
$GNGSA,M,3,11,12,18,25,29,,,,,,,,1.5,0.9,1.2,1*35
$GNGSA,M,3,15,27,29,30,34,,,,,,,,1.5,0.9,1.2,3*3F
$GNGSA,M,3,23,27,28,37,43,,,,,,,,1.5,0.9,1.2,4*3B
$GNRMC,080444.00,A,4901.87098785,N,00821.78705776,E,0.036,196.5,050426,3.1,E,A,C*49
$GNGST,080444.00,3.09,3.40,2.06,129.1391,2.647,2.908,3.143*4D
$GPGSV,2,1,07,11,24,045,34,29,84,199,24,25,62,099,33,18,15,177,39,1*65
$GPGSV,2,2,07,12,22,099,27,31,38,304,15,28,59,271,24,1*5B
$GPGSV,2,1,07,11,24,045,23,29,84,199,31,25,62,099,22,18,15,177,40,4*6C
$GPGSV,2,2,07,12,22,099,22,31,38,304,19,28,59,271,25,4*56
$GPGSV,1,1,04,11,24,045,31,25,62,099,25,18,15,177,41,28,59,271,29,8*68
$GBGSV,2,1,05,23,26,131,37,27,35,199,38,28,68,143,42,37,78,160,37,1*77
$GBGSV,2,2,05,43,32,053,32,1*42
$GBGSV,2,1,05,23,26,131,39,27,35,199,31,28,68,143,40,37,78,160,38,3*7F
$GBGSV,2,2,05,43,32,053,30,3*42
$GBGSV,1,1,04,23,26,131,34,27,35,199,37,28,68,143,28,37,78,160,31,5*77
$GBGSV,1,1,04,23,26,131,42,27,35,199,42,28,68,143,37,37,78,160,35,8*73
$GAGSV,2,1,06,30,54,087,32,36,15,032,19,29,26,256,34,15,30,148,39,1*7D
$GAGSV,2,2,06,34,42,082,16,27,68,297,30,1*7B
$GAGSV,2,1,06,30,54,087,37,36,15,032,18,29,26,256,31,15,30,148,38,2*7E
$GAGSV,2,2,06,34,42,082,22,27,68,297,28,2*76
$GAGSV,2,1,06,30,54,087,34,36,15,032,25,29,26,256,21,15,30,148,39,7*76
$GAGSV,2,2,06,34,42,082,31,27,68,297,23,7*7A
$GNGGA,080444.02,,,,,0,15,0.9,,,,,,*7B
$GNGGA,080444.04,,,,,0,15,0.9,,,,,,*7D
$GNGGA,080444.06,,,,,0,15,0.9,,,,,,*7F
$GNGGA,080444.08,,,,,0,15,0.9,,,,,,*71
$GNGGA,080444.10,,,,,0,15,0.9,,,,,,*78
$GNGGA,080444.10,,,,,0,15,0.9,,,,,,*78
$GNRMC,080444.10,V,,,,,,,050426,0.0,E,N,V*7A
$GNGST,080444.10,3.09,3.40,2.06,129.1391,2.647,2.908,3.143*4C
$GNGGA,080444.12,,,,,0,15,0.9,,,,,,*7A
$GNGGA,080444.14,,,,,0,15,0.9,,,,,,*7C
$GNGGA,080444.16,,,,,0,15,0.9,,,,,,*7E
$GNGGA,080444.18,,,,,0,15,0.9,,,,,,*70
$GNGGA,080444.20,,,,,0,15,0.9,,,,,,*7B
$GNGGA,080444.20,,,,,0,15,0.9,,,,,,*7B
$GNRMC,080444.20,V,,,,,,,050426,0.0,E,N,V*79
$GNGST,080444.20,3.09,3.40,2.06,129.1391,2.647,2.908,3.143*4F
$GNGGA,080444.22,,,,,0,15,0.9,,,,,,*79
$GNGGA,080444.24,,,,,0,15,0.9,,,,,,*7F
$GNGGA,080444.26,,,,,0,15,0.9,,,,,,*7D
$GNGGA,080444.28,,,,,0,15,0.9,,,,,,*73
$GNGGA,080444.30,,,,,0,15,0.9,,,,,,*7A
$GNGGA,080444.30,,,,,0,15,0.9,,,,,,*7A
$GNRMC,080444.30,V,,,,,,,050426,0.0,E,N,V*78
$GNGST,080444.30,3.09,3.40,2.06,129.1391,2.647,2.908,3.143*4E
$GNGGA,080444.32,,,,,0,15,0.9,,,,,,*78
$GNGGA,080444.34,,,,,0,15,0.9,,,,,,*7E
$GNGGA,080444.36,,,,,0,15,0.9,,,,,,*7C
$GNGGA,080444.38,,,,,0,15,0.9,,,,,,*72
$GNGGA,080444.40,,,,,0,15,0.9,,,,,,*7D
$GNGGA,080444.40,,,,,0,15,0.9,,,,,,*7D
$GNRMC,080444.40,V,,,,,,,050426,0.0,E,N,V*7F
$GNGST,080444.40,3.09,3.40,2.06,129.1391,2.647,2.908,3.143*49
$GNGGA,080444.42,,,,,0,15,0.9,,,,,,*7F
$GNGGA,080444.44,,,,,0,15,0.9,,,,,,*79
$GNGGA,080444.46,,,,,0,15,0.9,,,,,,*7B
$GNGGA,080444.48,,,,,0,15,0.9,,,,,,*75
$GNGGA,080444.50,,,,,0,15,0.9,,,,,,*7C
$GNGGA,080444.50,,,,,0,15,0.9,,,,,,*7C
$GNRMC,080444.50,V,,,,,,,050426,0.0,E,N,V*7E
$GNGST,080444.50,3.09,3.40,2.06,129.1391,2.647,2.908,3.143*48
$GNGGA,080444.52,,,,,0,15,0.9,,,,,,*7E
$GNGGA,080444.54,,,,,0,15,0.9,,,,,,*78
$GNGGA,080444.56,,,,,0,15,0.9,,,,,,*7A
$GNGGA,080444.58,,,,,0,15,0.9,,,,,,*74
$GNGGA,080444.60,,,,,0,15,0.9,,,,,,*7F
$GNGGA,080444.60,,,,,0,15,0.9,,,,,,*7F
$GNRMC,080444.60,V,,,,,,,050426,0.0,E,N,V*7D
$GNGST,080444.60,3.09,3.40,2.06,129.1391,2.647,2.908,3.143*4B
$GNGGA,080444.62,,,,,0,15,0.9,,,,,,*7D
$GNGGA,080444.64,,,,,0,15,0.9,,,,,,*7B
$GNGGA,080444.66,,,,,0,15,0.9,,,,,,*79
$GNGGA,080444.68,,,,,0,15,0.9,,,,,,*77
$GNGGA,080444.70,,,,,0,15,0.9,,,,,,*7E
$GNGGA,080444.70,,,,,0,15,0.9,,,,,,*7E
$GNRMC,080444.70,V,,,,,,,050426,0.0,E,N,V*7C
$GNGST,080444.70,3.09,3.40,2.06,129.1391,2.647,2.908,3.143*4A
$GNGGA,080444.72,,,,,0,15,0.9,,,,,,*7C
$GNGGA,080444.74,,,,,0,15,0.9,,,,,,*7A
$GNGGA,080444.76,,,,,0,15,0.9,,,,,,*78
$GNGGA,080444.78,,,,,0,15,0.9,,,,,,*76
$GNGGA,080444.80,,,,,0,15,0.9,,,,,,*71
$GNGGA,080444.80,,,,,0,15,0.9,,,,,,*71
$GNRMC,080444.80,V,,,,,,,050426,0.0,E,N,V*73
$GNGST,080444.80,3.09,3.40,2.06,129.1391,2.647,2.908,3.143*45
$GNGGA,080444.82,,,,,0,15,0.9,,,,,,*73
$GNGGA,080444.84,,,,,0,15,0.9,,,,,,*75
$GNGGA,080444.86,,,,,0,15,0.9,,,,,,*77
$GNGGA,080444.88,,,,,0,15,0.9,,,,,,*79
$GNGGA,080444.90,,,,,0,15,0.9,,,,,,*70
$GNGGA,080444.90,,,,,0,15,0.9,,,,,,*70
$GNRMC,080444.90,V,,,,,,,050426,0.0,E,N,V*72
$GNGST,080444.90,3.09,3.40,2.06,129.1391,2.647,2.908,3.143*44
$GNGGA,080444.92,,,,,0,15,0.9,,,,,,*72
$GNGGA,080444.94,,,,,0,15,0.9,,,,,,*74
$GNGGA,080444.96,,,,,0,15,0.9,,,,,,*76
$GNGGA,080444.98,,,,,0,15,0.9,,,,,,*78
$GNGGA,080445.00,4901.87098857,N,00821.78702662,E,1,15,0.9,111.8009,M,48.3897,M,,*70
$GNGGA,080445.00,4901.87098857,N,00821.78702662,E,1,15,0.9,111.8009,M,48.3897,M,,*70
$GNGSA,M,3,11,12,18,25,29,,,,,,,,1.5,0.9,1.2,1*35
$GNGSA,M,3,15,27,29,30,34,,,,,,,,1.5,0.9,1.2,3*3F
$GNGSA,M,3,23,27,28,37,43,,,,,,,,1.5,0.9,1.2,4*3B
$GNRMC,080445.00,A,4901.87098857,N,00821.78702662,E,0.051,294.7,050426,3.1,E,A,C*49
$GNGST,080445.00,3.40,3.36,2.05,130.0074,2.647,2.866,3.130*4F
$GPGSV,2,1,07,11,24,045,34,29,84,199,24,25,62,099,34,18,15,177,39,1*62
$GPGSV,2,2,07,12,22,099,28,31,38,304,15,28,59,271,25,1*55
$GPGSV,2,1,07,11,24,045,23,29,84,199,32,25,62,099,23,18,15,177,40,4*6E
$GPGSV,2,2,07,12,22,099,22,31,38,304,21,28,59,271,25,4*5D
$GPGSV,1,1,04,11,24,045,32,25,62,099,24,18,15,177,42,28,59,271,30,8*61
$GBGSV,2,1,05,23,26,131,37,27,35,199,38,28,68,143,43,37,78,160,37,1*76
$GBGSV,2,2,05,43,32,053,32,1*42
$GBGSV,2,1,05,23,26,131,39,27,35,199,30,28,68,143,40,37,78,160,38,3*7E
$GBGSV,2,2,05,43,32,053,30,3*42
$GBGSV,1,1,04,23,26,131,34,27,35,199,37,28,68,143,27,37,78,160,32,5*7B
$GBGSV,1,1,04,23,26,131,42,27,35,199,42,28,68,143,37,37,78,160,35,8*73
$GAGSV,2,1,06,30,54,087,32,36,15,032,19,29,26,256,34,15,30,148,39,1*7D
$GAGSV,2,2,06,34,42,082,15,27,68,297,31,1*79
$GAGSV,2,1,06,30,54,087,38,36,15,032,18,29,26,256,32,15,30,148,39,2*73
$GAGSV,2,2,06,34,42,082,22,27,68,297,28,2*76
$GAGSV,2,1,06,30,54,087,34,36,15,032,25,29,26,256,21,15,30,148,39,7*76
$GAGSV,2,2,06,34,42,082,31,27,68,297,23,7*7A
$GNGGA,080445.02,,,,,0,15,0.9,,,,,,*7A
$GNGGA,080445.04,,,,,0,15,0.9,,,,,,*7C
$GNGGA,080445.06,,,,,0,15,0.9,,,,,,*7E
$GNGGA,080445.08,,,,,0,15,0.9,,,,,,*70
$GNGGA,080445.10,,,,,0,15,0.9,,,,,,*79
$GNGGA,080445.10,,,,,0,15,0.9,,,,,,*79
$GNRMC,080445.10,V,,,,,,,050426,0.0,E,N,V*7B
$GNGST,080445.10,3.40,3.36,2.05,130.0074,2.647,2.866,3.130*4E
$GNGGA,080445.12,,,,,0,15,0.9,,,,,,*7B
$GNGGA,080445.14,,,,,0,15,0.9,,,,,,*7D
$GNGGA,080445.16,,,,,0,15,0.9,,,,,,*7F
$GNGGA,080445.18,,,,,0,15,0.9,,,,,,*71
$GNGGA,080445.20,,,,,0,15,0.9,,,,,,*7A
$GNGGA,080445.20,,,,,0,15,0.9,,,,,,*7A
$GNRMC,080445.20,V,,,,,,,050426,0.0,E,N,V*78
$GNGST,080445.20,3.40,3.36,2.05,130.0074,2.647,2.866,3.130*4D
$GNGGA,080445.22,,,,,0,15,0.9,,,,,,*78
$GNGGA,080445.24,,,,,0,15,0.9,,,,,,*7E
$GNGGA,080445.26,,,,,0,15,0.9,,,,,,*7C
$GNGGA,080445.28,,,,,0,15,0.9,,,,,,*72
$GNGGA,080445.30,,,,,0,15,0.9,,,,,,*7B
$GNGGA,080445.30,,,,,0,15,0.9,,,,,,*7B
$GNRMC,080445.30,V,,,,,,,050426,0.0,E,N,V*79
$GNGST,080445.30,3.40,3.36,2.05,130.0074,2.647,2.866,3.130*4C
$GNGGA,080445.32,,,,,0,15,0.9,,,,,,*79
$GNGGA,080445.34,,,,,0,15,0.9,,,,,,*7F
$GNGGA,080445.36,,,,,0,15,0.9,,,,,,*7D
$GNGGA,080445.38,,,,,0,15,0.9,,,,,,*73
$GNGGA,080445.40,,,,,0,15,0.9,,,,,,*7C
$GNGGA,080445.40,,,,,0,15,0.9,,,,,,*7C
$GNRMC,080445.40,V,,,,,,,050426,0.0,E,N,V*7E
$GNGST,080445.40,3.40,3.36,2.05,130.0074,2.647,2.866,3.130*4B
$GNGGA,080445.42,,,,,0,15,0.9,,,,,,*7E
$GNGGA,080445.44,,,,,0,15,0.9,,,,,,*78
$GNGGA,080445.46,,,,,0,15,0.9,,,,,,*7A
$GNGGA,080445.48,,,,,0,15,0.9,,,,,,*74
$GNGGA,080445.50,,,,,0,15,0.9,,,,,,*7D
$GNGGA,080445.50,,,,,0,15,0.9,,,,,,*7D
$GNRMC,080445.50,V,,,,,,,050426,0.0,E,N,V*7F
$GNGST,080445.50,3.40,3.36,2.05,130.0074,2.647,2.866,3.130*4A
$GNGGA,080445.52,,,,,0,15,0.9,,,,,,*7F
$GNGGA,080445.54,,,,,0,15,0.9,,,,,,*79
$GNGGA,080445.56,,,,,0,15,0.9,,,,,,*7B
$GNGGA,080445.58,,,,,0,15,0.9,,,,,,*75
$GNGGA,080445.60,,,,,0,15,0.9,,,,,,*7E
$GNGGA,080445.60,,,,,0,15,0.9,,,,,,*7E
$GNRMC,080445.60,V,,,,,,,050426,0.0,E,N,V*7C
$GNGST,080445.60,3.40,3.36,2.05,130.0074,2.647,2.866,3.130*49
$GNGGA,080445.62,,,,,0,15,0.9,,,,,,*7C
$GNGGA,080445.64,,,,,0,15,0.9,,,,,,*7A
$GNGGA,080445.66,,,,,0,15,0.9,,,,,,*78
$GNGGA,080445.68,,,,,0,15,0.9,,,,,,*76
$GNGGA,080445.70,,,,,0,15,0.9,,,,,,*7F
$GNGGA,080445.70,,,,,0,15,0.9,,,,,,*7F
$GNRMC,080445.70,V,,,,,,,050426,0.0,E,N,V*7D
$GNGST,080445.70,3.40,3.36,2.05,130.0074,2.647,2.866,3.130*48
$GNGGA,080445.72,,,,,0,15,0.9,,,,,,*7D
$GNGGA,080445.74,,,,,0,15,0.9,,,,,,*7B
$GNGGA,080445.76,,,,,0,15,0.9,,,,,,*79
$GNGGA,080445.78,,,,,0,15,0.9,,,,,,*77
$GNGGA,080445.80,,,,,0,15,0.9,,,,,,*70
$GNGGA,080445.80,,,,,0,15,0.9,,,,,,*70
$GNRMC,080445.80,V,,,,,,,050426,0.0,E,N,V*72
$GNGST,080445.80,3.40,3.36,2.05,130.0074,2.647,2.866,3.130*47
$GNGGA,080445.82,,,,,0,15,0.9,,,,,,*72
$GNGGA,080445.84,,,,,0,15,0.9,,,,,,*74
$GNGGA,080445.86,,,,,0,15,0.9,,,,,,*76
$GNGGA,080445.88,,,,,0,15,0.9,,,,,,*78
$GNGGA,080445.90,,,,,0,15,0.9,,,,,,*71
$GNGGA,080445.90,,,,,0,15,0.9,,,,,,*71
$GNRMC,080445.90,V,,,,,,,050426,0.0,E,N,V*73
$GNGST,080445.90,3.40,3.36,2.05,130.0074,2.647,2.866,3.130*46
$GNGGA,080445.92,,,,,0,15,0.9,,,,,,*73
$GNGGA,080445.94,,,,,0,15,0.9,,,,,,*75
$GNGGA,080445.96,,,,,0,15,0.9,,,,,,*77
$GNGGA,080445.98,,,,,0,15,0.9,,,,,,*79
$GNGGA,080446.00,4901.87099812,N,00821.78697319,E,1,17,0.7,111.6901,M,48.3897,M,,*74
$GNGGA,080446.00,4901.87099812,N,00821.78697319,E,1,17,0.7,111.6901,M,48.3897,M,,*74
$GNGSA,M,3,11,12,18,25,29,31,,,,,,,1.3,0.7,1.0,1*3D
$GNGSA,M,3,15,27,29,30,34,36,,,,,,,1.3,0.7,1.0,3*30
$GNGSA,M,3,23,27,28,37,43,,,,,,,,1.3,0.7,1.0,4*31
$GNRMC,080446.00,A,4901.87099812,N,00821.78697319,E,0.102,284.7,050426,3.1,E,A,C*48
$GNGST,080446.00,4.05,3.38,2.08,125.4768,2.525,2.929,3.094*41
$GPGSV,2,1,07,11,24,045,34,29,84,199,24,25,62,099,34,18,15,177,39,1*62
$GPGSV,2,2,07,12,22,099,28,31,38,304,15,28,59,271,25,1*55
$GPGSV,2,1,07,11,24,045,23,29,84,199,32,25,62,099,23,18,15,177,40,4*6E
$GPGSV,2,2,07,12,22,099,23,31,38,304,21,28,59,271,25,4*5C
$GPGSV,1,1,04,11,24,045,32,25,62,099,24,18,15,177,42,28,59,271,30,8*61
$GBGSV,2,1,05,23,26,131,37,27,35,199,38,28,68,143,43,37,78,160,37,1*76
$GBGSV,2,2,05,43,32,053,32,1*42
$GBGSV,2,1,05,23,26,131,39,27,35,199,29,28,68,143,41,37,78,160,38,3*77
$GBGSV,2,2,05,43,32,053,31,3*43
$GBGSV,1,1,04,23,26,131,33,27,35,199,37,28,68,143,27,37,78,160,31,5*7F
$GBGSV,1,1,04,23,26,131,42,27,35,199,42,28,68,143,37,37,78,160,35,8*73
$GAGSV,2,1,06,30,54,087,32,36,15,032,20,29,26,256,34,15,30,148,39,1*77
$GAGSV,2,2,06,34,42,082,14,27,68,297,31,1*78
$GAGSV,2,1,06,30,54,087,38,36,15,032,18,29,26,256,32,15,30,148,39,2*73
$GAGSV,2,2,06,34,42,082,22,27,68,297,28,2*76
$GAGSV,2,1,06,30,54,087,34,36,15,032,25,29,26,256,21,15,30,148,39,7*76
$GAGSV,2,2,06,34,42,082,31,27,68,297,23,7*7A
$GNGGA,080446.02,,,,,0,17,0.7,,,,,,*75
$GNGGA,080446.04,,,,,0,17,0.7,,,,,,*73
$GNGGA,080446.06,,,,,0,17,0.7,,,,,,*71
$GNGGA,080446.08,,,,,0,17,0.7,,,,,,*7F
$GNGGA,080446.10,,,,,0,17,0.7,,,,,,*76
$GNGGA,080446.10,,,,,0,17,0.7,,,,,,*76
$GNRMC,080446.10,V,,,,,,,050426,0.0,E,N,V*78
$GNGST,080446.10,4.05,3.38,2.08,125.4768,2.525,2.929,3.094*40
$GNGGA,080446.12,,,,,0,17,0.7,,,,,,*74
$GNGGA,080446.14,,,,,0,17,0.7,,,,,,*72
$GNGGA,080446.16,,,,,0,17,0.7,,,,,,*70
$GNGGA,080446.18,,,,,0,17,0.7,,,,,,*7E
$GNGGA,080446.20,,,,,0,17,0.7,,,,,,*75
$GNGGA,080446.20,,,,,0,17,0.7,,,,,,*75
$GNRMC,080446.20,V,,,,,,,050426,0.0,E,N,V*7B
$GNGST,080446.20,4.05,3.38,2.08,125.4768,2.525,2.929,3.094*43
$GNGGA,080446.22,,,,,0,17,0.7,,,,,,*77
$GNGGA,080446.24,,,,,0,17,0.7,,,,,,*71
$GNGGA,080446.26,,,,,0,17,0.7,,,,,,*73
$GNGGA,080446.28,,,,,0,17,0.7,,,,,,*7D
$GNGGA,080446.30,,,,,0,17,0.7,,,,,,*74
$GNGGA,080446.30,,,,,0,17,0.7,,,,,,*74
$GNRMC,080446.30,V,,,,,,,050426,0.0,E,N,V*7A
$GNGST,080446.30,4.05,3.38,2.08,125.4768,2.525,2.929,3.094*42
$GNGGA,080446.32,,,,,0,17,0.7,,,,,,*76
$GNGGA,080446.34,,,,,0,17,0.7,,,,,,*70
$GNGGA,080446.36,,,,,0,17,0.7,,,,,,*72
$GNGGA,080446.38,,,,,0,17,0.7,,,,,,*7C
$GNGGA,080446.40,,,,,0,17,0.7,,,,,,*73
$GNGGA,080446.40,,,,,0,17,0.7,,,,,,*73
$GNRMC,080446.40,V,,,,,,,050426,0.0,E,N,V*7D
$GNGST,080446.40,4.05,3.38,2.08,125.4768,2.525,2.929,3.094*45
$GNGGA,080446.42,,,,,0,17,0.7,,,,,,*71
$GNGGA,080446.44,,,,,0,17,0.7,,,,,,*77
$GNGGA,080446.46,,,,,0,17,0.7,,,,,,*75
$GNGGA,080446.48,,,,,0,17,0.7,,,,,,*7B
$GNGGA,080446.50,,,,,0,17,0.7,,,,,,*72
$GNGGA,080446.50,,,,,0,17,0.7,,,,,,*72
$GNRMC,080446.50,V,,,,,,,050426,0.0,E,N,V*7C
$GNGST,080446.50,4.05,3.38,2.08,125.4768,2.525,2.929,3.094*44
$GNGGA,080446.52,,,,,0,17,0.7,,,,,,*70
$GNGGA,080446.54,,,,,0,17,0.7,,,,,,*76
$GNGGA,080446.56,,,,,0,17,0.7,,,,,,*74
$GNGGA,080446.58,,,,,0,17,0.7,,,,,,*7A
$GNGGA,080446.60,,,,,0,17,0.7,,,,,,*71
$GNGGA,080446.60,,,,,0,17,0.7,,,,,,*71
$GNRMC,080446.60,V,,,,,,,050426,0.0,E,N,V*7F
$GNGST,080446.60,4.05,3.38,2.08,125.4768,2.525,2.929,3.094*47
$GNGGA,080446.62,,,,,0,17,0.7,,,,,,*73
$GNGGA,080446.64,,,,,0,17,0.7,,,,,,*75
$GNGGA,080446.66,,,,,0,17,0.7,,,,,,*77
$GNGGA,080446.68,,,,,0,17,0.7,,,,,,*79
$GNGGA,080446.70,,,,,0,17,0.7,,,,,,*70
$GNGGA,080446.70,,,,,0,17,0.7,,,,,,*70
$GNRMC,080446.70,V,,,,,,,050426,0.0,E,N,V*7E
$GNGST,080446.70,4.05,3.38,2.08,125.4768,2.525,2.929,3.094*46
$GNGGA,080446.72,,,,,0,17,0.7,,,,,,*72
$GNGGA,080446.74,,,,,0,17,0.7,,,,,,*74
$GNGGA,080446.76,,,,,0,17,0.7,,,,,,*76
$GNGGA,080446.78,,,,,0,17,0.7,,,,,,*78
$GNGGA,080446.80,,,,,0,17,0.7,,,,,,*7F
$GNGGA,080446.80,,,,,0,17,0.7,,,,,,*7F
$GNRMC,080446.80,V,,,,,,,050426,0.0,E,N,V*71
$GNGST,080446.80,4.05,3.38,2.08,125.4768,2.525,2.929,3.094*49
$GNGGA,080446.82,,,,,0,17,0.7,,,,,,*7D
$GNGGA,080446.84,,,,,0,17,0.7,,,,,,*7B
$GNGGA,080446.86,,,,,0,17,0.7,,,,,,*79
$GNGGA,080446.88,,,,,0,17,0.7,,,,,,*77
$GNGGA,080446.90,,,,,0,17,0.7,,,,,,*7E
$GNGGA,080446.90,,,,,0,17,0.7,,,,,,*7E
$GNRMC,080446.90,V,,,,,,,050426,0.0,E,N,V*70
$GNGST,080446.90,4.05,3.38,2.08,125.4768,2.525,2.929,3.094*48
$GNGGA,080446.92,,,,,0,17,0.7,,,,,,*7C
$GNGGA,080446.94,,,,,0,17,0.7,,,,,,*7A
$GNGGA,080446.96,,,,,0,17,0.7,,,,,,*78
$GNGGA,080446.98,,,,,0,17,0.7,,,,,,*76
$GNGGA,080447.00,4901.87100421,N,00821.78701983,E,1,15,0.8,111.6974,M,48.3897,M,,*70
$GNGGA,080447.00,4901.87100421,N,00821.78701983,E,1,15,0.8,111.6974,M,48.3897,M,,*70
$GNGSA,M,3,11,12,18,25,31,,,,,,,,1.6,0.8,1.3,1*3F
$GNGSA,M,3,15,27,29,30,34,,,,,,,,1.6,0.8,1.3,3*3C
$GNGSA,M,3,23,27,28,37,43,,,,,,,,1.6,0.8,1.3,4*38
$GNRMC,080447.00,A,4901.87100421,N,00821.78701983,E,0.159,86.7,050426,3.1,E,A,C*7D
$GNGST,080447.00,3.30,3.31,2.09,129.9764,2.633,2.839,3.252*48
$GPGSV,2,1,07,11,24,045,34,29,84,199,24,25,62,099,34,18,15,177,39,1*62
$GPGSV,2,2,07,12,22,099,28,31,38,304,15,28,59,271,25,1*55
$GPGSV,2,1,07,11,24,045,22,29,84,199,32,25,62,099,23,18,15,177,40,4*6F
$GPGSV,2,2,07,12,22,099,23,31,38,304,21,28,59,271,25,4*5C
$GPGSV,1,1,04,11,24,045,33,25,62,099,23,18,15,177,41,28,59,271,30,8*64
$GBGSV,2,1,05,23,26,131,37,27,35,199,38,28,68,143,43,37,78,160,37,1*76
$GBGSV,2,2,05,43,32,053,32,1*42
$GBGSV,2,1,05,23,26,131,38,27,35,199,29,28,68,143,41,37,78,160,38,3*76
$GBGSV,2,2,05,43,32,053,32,3*40
$GBGSV,1,1,04,23,26,131,33,27,35,199,37,28,68,143,27,37,78,160,31,5*7F
$GBGSV,1,1,04,23,26,131,42,27,35,199,42,28,68,143,37,37,78,160,35,8*73
$GAGSV,2,1,06,30,54,087,31,36,15,032,20,29,26,256,33,15,30,148,38,1*72
$GAGSV,2,2,06,34,42,082,14,27,68,297,31,1*78
$GAGSV,2,1,06,30,54,087,38,36,15,032,18,29,26,256,32,15,30,148,39,2*73
$GAGSV,2,2,06,34,42,082,22,27,68,297,29,2*77
$GAGSV,2,1,06,30,54,087,34,36,15,032,25,29,26,256,21,15,30,148,39,7*76
$GAGSV,2,2,06,34,42,082,31,27,68,297,23,7*7A
$GNGGA,080447.02,,,,,0,15,0.8,,,,,,*79
$GNGGA,080447.04,,,,,0,15,0.8,,,,,,*7F
$GNGGA,080447.06,,,,,0,15,0.8,,,,,,*7D
$GNGGA,080447.08,,,,,0,15,0.8,,,,,,*73
$GNGGA,080447.10,,,,,0,15,0.8,,,,,,*7A
$GNGGA,080447.10,,,,,0,15,0.8,,,,,,*7A
$GNRMC,080447.10,V,,,,,,,050426,0.0,E,N,V*79
$GNGST,080447.10,3.30,3.31,2.09,129.9764,2.633,2.839,3.252*49
$GNGGA,080447.12,,,,,0,15,0.8,,,,,,*78
$GNGGA,080447.14,,,,,0,15,0.8,,,,,,*7E
$GNGGA,080447.16,,,,,0,15,0.8,,,,,,*7C
$GNGGA,080447.18,,,,,0,15,0.8,,,,,,*72
$GNGGA,080447.20,,,,,0,15,0.8,,,,,,*79
$GNGGA,080447.20,,,,,0,15,0.8,,,,,,*79
$GNRMC,080447.20,V,,,,,,,050426,0.0,E,N,V*7A
$GNGST,080447.20,3.30,3.31,2.09,129.9764,2.633,2.839,3.252*4A
$GNGGA,080447.22,,,,,0,15,0.8,,,,,,*7B
$GNGGA,080447.24,,,,,0,15,0.8,,,,,,*7D
$GNGGA,080447.26,,,,,0,15,0.8,,,,,,*7F
$GNGGA,080447.28,,,,,0,15,0.8,,,,,,*71
$GNGGA,080447.30,,,,,0,15,0.8,,,,,,*78
$GNGGA,080447.30,,,,,0,15,0.8,,,,,,*78
$GNRMC,080447.30,V,,,,,,,050426,0.0,E,N,V*7B
$GNGST,080447.30,3.30,3.31,2.09,129.9764,2.633,2.839,3.252*4B
$GNGGA,080447.32,,,,,0,15,0.8,,,,,,*7A
$GNGGA,080447.34,,,,,0,15,0.8,,,,,,*7C
$GNGGA,080447.36,,,,,0,15,0.8,,,,,,*7E
$GNGGA,080447.38,,,,,0,15,0.8,,,,,,*70
$GNGGA,080447.40,,,,,0,15,0.8,,,,,,*7F
$GNGGA,080447.40,,,,,0,15,0.8,,,,,,*7F
$GNRMC,080447.40,V,,,,,,,050426,0.0,E,N,V*7C
$GNGST,080447.40,3.30,3.31,2.09,129.9764,2.633,2.839,3.252*4C
$GNGGA,080447.42,,,,,0,15,0.8,,,,,,*7D
$GNGGA,080447.44,,,,,0,15,0.8,,,,,,*7B
$GNGGA,080447.46,,,,,0,15,0.8,,,,,,*79
$GNGGA,080447.48,,,,,0,15,0.8,,,,,,*77
$GNGGA,080447.50,,,,,0,15,0.8,,,,,,*7E
$GNGGA,080447.50,,,,,0,15,0.8,,,,,,*7E
$GNRMC,080447.50,V,,,,,,,050426,0.0,E,N,V*7D
$GNGST,080447.50,3.30,3.31,2.09,129.9764,2.633,2.839,3.252*4D
$GNGGA,080447.52,,,,,0,15,0.8,,,,,,*7C
$GNGGA,080447.54,,,,,0,15,0.8,,,,,,*7A
$GNGGA,080447.56,,,,,0,15,0.8,,,,,,*78
$GNGGA,080447.58,,,,,0,15,0.8,,,,,,*76
$GNGGA,080447.60,,,,,0,15,0.8,,,,,,*7D
$GNGGA,080447.60,,,,,0,15,0.8,,,,,,*7D
$GNRMC,080447.60,V,,,,,,,050426,0.0,E,N,V*7E
$GNGST,080447.60,3.30,3.31,2.09,129.9764,2.633,2.839,3.252*4E
$GNGGA,080447.62,,,,,0,15,0.8,,,,,,*7F
$GNGGA,080447.64,,,,,0,15,0.8,,,,,,*79
$GNGGA,080447.66,,,,,0,15,0.8,,,,,,*7B
$GNGGA,080447.68,,,,,0,15,0.8,,,,,,*75
$GNGGA,080447.70,,,,,0,15,0.8,,,,,,*7C
$GNGGA,080447.70,,,,,0,15,0.8,,,,,,*7C
$GNRMC,080447.70,V,,,,,,,050426,0.0,E,N,V*7F
$GNGST,080447.70,3.30,3.31,2.09,129.9764,2.633,2.839,3.252*4F
$GNGGA,080447.72,,,,,0,15,0.8,,,,,,*7E
$GNGGA,080447.74,,,,,0,15,0.8,,,,,,*78
$GNGGA,080447.76,,,,,0,15,0.8,,,,,,*7A
$GNGGA,080447.78,,,,,0,15,0.8,,,,,,*74
$GNGGA,080447.80,,,,,0,15,0.8,,,,,,*73
$GNGGA,080447.80,,,,,0,15,0.8,,,,,,*73
$GNRMC,080447.80,V,,,,,,,050426,0.0,E,N,V*70
$GNGST,080447.80,3.30,3.31,2.09,129.9764,2.633,2.839,3.252*40
$GNGGA,080447.82,,,,,0,15,0.8,,,,,,*71
$GNGGA,080447.84,,,,,0,15,0.8,,,,,,*77
$GNGGA,080447.86,,,,,0,15,0.8,,,,,,*75
$GNGGA,080447.88,,,,,0,15,0.8,,,,,,*7B
$GNGGA,080447.90,,,,,0,15,0.8,,,,,,*72
$GNGGA,080447.90,,,,,0,15,0.8,,,,,,*72
$GNRMC,080447.90,V,,,,,,,050426,0.0,E,N,V*71
$GNGST,080447.90,3.30,3.31,2.09,129.9764,2.633,2.839,3.252*41
$GNGGA,080447.92,,,,,0,15,0.8,,,,,,*70
$GNGGA,080447.94,,,,,0,15,0.8,,,,,,*76
$GNGGA,080447.96,,,,,0,15,0.8,,,,,,*74
$GNGGA,080447.98,,,,,0,15,0.8,,,,,,*7A
$GNGGA,080448.00,4901.87097313,N,00821.78704457,E,1,15,0.8,111.7182,M,48.3897,M,,*77
$GNGGA,080448.00,4901.87097313,N,00821.78704457,E,1,15,0.8,111.7182,M,48.3897,M,,*77
$GNGSA,M,3,11,12,18,25,31,,,,,,,,1.6,0.8,1.3,1*3F
$GNGSA,M,3,15,27,29,30,34,,,,,,,,1.6,0.8,1.3,3*3C
$GNGSA,M,3,23,27,28,37,43,,,,,,,,1.6,0.8,1.3,4*38
$GNRMC,080448.00,A,4901.87097313,N,00821.78704457,E,0.161,147.6,050426,3.1,E,A,C*4C
$GNGST,080448.00,2.80,3.23,2.09,130.2208,2.604,2.787,3.219*43
$GPGSV,2,1,07,11,24,045,34,29,84,199,24,25,62,099,34,18,15,177,39,1*62
$GPGSV,2,2,07,12,22,099,28,31,38,303,16,28,59,271,25,1*51
$GPGSV,2,1,07,11,24,045,23,29,84,199,32,25,62,099,24,18,15,177,40,4*69
$GPGSV,2,2,07,12,22,099,23,31,38,303,21,28,59,271,25,4*5B
$GPGSV,1,1,04,11,24,045,33,25,62,099,24,18,15,177,42,28,59,271,30,8*60
$GBGSV,2,1,05,23,26,131,37,27,35,199,38,28,68,143,43,37,78,160,37,1*76
$GBGSV,2,2,05,43,32,053,32,1*42
$GBGSV,2,1,05,23,26,131,38,27,35,199,28,28,68,143,41,37,78,160,38,3*77
$GBGSV,2,2,05,43,32,053,31,3*43
$GBGSV,1,1,04,23,26,131,33,27,35,199,37,28,68,143,27,37,78,160,31,5*7F
$GBGSV,1,1,04,23,26,131,42,27,35,199,42,28,68,143,37,37,78,160,35,8*73
$GAGSV,2,1,06,30,54,087,32,36,15,032,21,29,26,256,34,15,30,148,39,1*76
$GAGSV,2,2,06,34,42,082,14,27,68,297,31,1*78
$GAGSV,2,1,06,30,54,087,38,36,15,032,17,29,26,256,33,15,30,148,39,2*7D
$GAGSV,2,2,06,34,42,082,22,27,68,297,29,2*77
$GAGSV,2,1,06,30,54,087,34,36,15,032,25,29,26,256,22,15,30,148,39,7*75
$GAGSV,2,2,06,34,42,082,31,27,68,297,24,7*7D
$GNGGA,080448.02,,,,,0,15,0.8,,,,,,*76
$GNGGA,080448.04,,,,,0,15,0.8,,,,,,*70
$GNGGA,080448.06,,,,,0,15,0.8,,,,,,*72
$GNGGA,080448.08,,,,,0,15,0.8,,,,,,*7C
$GNGGA,080448.10,,,,,0,15,0.8,,,,,,*75
$GNGGA,080448.10,,,,,0,15,0.8,,,,,,*75
$GNRMC,080448.10,V,,,,,,,050426,0.0,E,N,V*76
$GNGST,080448.10,2.80,3.23,2.09,130.2208,2.604,2.787,3.219*42
$GNGGA,080448.12,,,,,0,15,0.8,,,,,,*77
$GNGGA,080448.14,,,,,0,15,0.8,,,,,,*71
$GNGGA,080448.16,,,,,0,15,0.8,,,,,,*73
$GNGGA,080448.18,,,,,0,15,0.8,,,,,,*7D
$GNGGA,080448.20,,,,,0,15,0.8,,,,,,*76
$GNGGA,080448.20,,,,,0,15,0.8,,,,,,*76
$GNRMC,080448.20,V,,,,,,,050426,0.0,E,N,V*75
$GNGST,080448.20,2.80,3.23,2.09,130.2208,2.604,2.787,3.219*41
$GNGGA,080448.22,,,,,0,15,0.8,,,,,,*74
$GNGGA,080448.24,,,,,0,15,0.8,,,,,,*72
$GNGGA,080448.26,,,,,0,15,0.8,,,,,,*70
$GNGGA,080448.28,,,,,0,15,0.8,,,,,,*7E
$GNGGA,080448.30,,,,,0,15,0.8,,,,,,*77
$GNGGA,080448.30,,,,,0,15,0.8,,,,,,*77
$GNRMC,080448.30,V,,,,,,,050426,0.0,E,N,V*74
$GNGST,080448.30,2.80,3.23,2.09,130.2208,2.604,2.787,3.219*40
$GNGGA,080448.32,,,,,0,15,0.8,,,,,,*75
$GNGGA,080448.34,,,,,0,15,0.8,,,,,,*73
$GNGGA,080448.36,,,,,0,15,0.8,,,,,,*71
$GNGGA,080448.38,,,,,0,15,0.8,,,,,,*7F
$GNGGA,080448.40,,,,,0,15,0.8,,,,,,*70
$GNGGA,080448.40,,,,,0,15,0.8,,,,,,*70
$GNRMC,080448.40,V,,,,,,,050426,0.0,E,N,V*73
$GNGST,080448.40,2.80,3.23,2.09,130.2208,2.604,2.787,3.219*47
$GNGGA,080448.42,,,,,0,15,0.8,,,,,,*72
$GNGGA,080448.44,,,,,0,15,0.8,,,,,,*74
$GNGGA,080448.46,,,,,0,15,0.8,,,,,,*76
$GNGGA,080448.48,,,,,0,15,0.8,,,,,,*78
$GNGGA,080448.50,,,,,0,15,0.8,,,,,,*71
$GNGGA,080448.50,,,,,0,15,0.8,,,,,,*71
$GNRMC,080448.50,V,,,,,,,050426,0.0,E,N,V*72
$GNGST,080448.50,2.80,3.23,2.09,130.2208,2.604,2.787,3.219*46
$GNGGA,080448.52,,,,,0,15,0.8,,,,,,*73
$GNGGA,080448.54,,,,,0,15,0.8,,,,,,*75
$GNGGA,080448.56,,,,,0,15,0.8,,,,,,*77
$GNGGA,080448.58,,,,,0,15,0.8,,,,,,*79
$GNGGA,080448.60,,,,,0,15,0.8,,,,,,*72
$GNGGA,080448.60,,,,,0,15,0.8,,,,,,*72
$GNRMC,080448.60,V,,,,,,,050426,0.0,E,N,V*71
$GNGST,080448.60,2.80,3.23,2.09,130.2208,2.604,2.787,3.219*45
$GNGGA,080448.62,,,,,0,15,0.8,,,,,,*70
$GNGGA,080448.64,,,,,0,15,0.8,,,,,,*76
$GNGGA,080448.66,,,,,0,15,0.8,,,,,,*74
$GNGGA,080448.68,,,,,0,15,0.8,,,,,,*7A
$GNGGA,080448.70,,,,,0,15,0.8,,,,,,*73
$GNGGA,080448.70,,,,,0,15,0.8,,,,,,*73
$GNRMC,080448.70,V,,,,,,,050426,0.0,E,N,V*70
$GNGST,080448.70,2.80,3.23,2.09,130.2208,2.604,2.787,3.219*44
$GNGGA,080448.72,,,,,0,15,0.8,,,,,,*71
$GNGGA,080448.74,,,,,0,15,0.8,,,,,,*77
$GNGGA,080448.76,,,,,0,15,0.8,,,,,,*75
$GNGGA,080448.78,,,,,0,15,0.8,,,,,,*7B
$GNGGA,080448.80,,,,,0,15,0.8,,,,,,*7C
$GNGGA,080448.80,,,,,0,15,0.8,,,,,,*7C
$GNRMC,080448.80,V,,,,,,,050426,0.0,E,N,V*7F
$GNGST,080448.80,2.80,3.23,2.09,130.2208,2.604,2.787,3.219*4B
$GNGGA,080448.82,,,,,0,15,0.8,,,,,,*7E
$GNGGA,080448.84,,,,,0,15,0.8,,,,,,*78
$GNGGA,080448.86,,,,,0,15,0.8,,,,,,*7A
$GNGGA,080448.88,,,,,0,15,0.8,,,,,,*74
$GNGGA,080448.90,,,,,0,15,0.8,,,,,,*7D
$GNGGA,080448.90,,,,,0,15,0.8,,,,,,*7D
$GNRMC,080448.90,V,,,,,,,050426,0.0,E,N,V*7E
$GNGST,080448.90,2.80,3.23,2.09,130.2208,2.604,2.787,3.219*4A
$GNGGA,080448.92,,,,,0,15,0.8,,,,,,*7F
$GNGGA,080448.94,,,,,0,15,0.8,,,,,,*79
$GNGGA,080448.96,,,,,0,15,0.8,,,,,,*7B
$GNGGA,080448.98,,,,,0,15,0.8,,,,,,*75
$GNGGA,080449.00,4901.87097925,N,00821.78709160,E,1,15,0.8,111.7417,M,48.3897,M,,*7C
$GNGGA,080449.00,4901.87097925,N,00821.78709160,E,1,15,0.8,111.7417,M,48.3897,M,,*7C
$GNGSA,M,3,11,12,18,25,31,,,,,,,,1.6,0.8,1.3,1*3F
$GNGSA,M,3,15,27,29,30,34,,,,,,,,1.6,0.8,1.3,3*3C
$GNGSA,M,3,23,27,28,37,43,,,,,,,,1.6,0.8,1.3,4*38
$GNRMC,080449.00,A,4901.87097925,N,00821.78709160,E,0.159,81.8,050426,3.1,E,A,C*70
$GNGST,080449.00,1.71,3.09,2.07,130.7854,2.534,2.679,3.150*41
$GPGSV,2,1,07,11,24,045,34,29,84,199,23,25,62,099,34,18,15,177,39,1*65
$GPGSV,2,2,07,12,22,099,28,31,38,303,18,28,59,271,24,1*5E
$GPGSV,2,1,07,11,24,045,23,29,84,199,31,25,62,099,24,18,15,177,40,4*6A
$GPGSV,2,2,07,12,22,099,22,31,38,303,21,28,59,271,24,4*5B
$GPGSV,1,1,04,11,24,045,33,25,62,099,25,18,15,177,42,28,59,271,30,8*61
$GBGSV,2,1,05,23,26,131,37,27,35,199,38,28,68,143,43,37,78,160,37,1*76
$GBGSV,2,2,05,43,32,053,31,1*41
$GBGSV,2,1,05,23,26,131,38,27,35,199,28,28,68,143,41,37,78,160,38,3*77
$GBGSV,2,2,05,43,32,053,32,3*40
$GBGSV,1,1,04,23,26,131,33,27,35,199,37,28,68,143,27,37,78,160,31,5*7F
$GBGSV,1,1,04,23,26,131,42,27,35,199,42,28,68,143,37,37,78,160,35,8*73
$GAGSV,2,1,06,30,54,087,32,36,15,032,20,29,26,256,33,15,30,148,39,1*70
$GAGSV,2,2,06,34,42,082,14,27,68,297,31,1*78
$GAGSV,2,1,06,30,54,087,38,36,15,032,18,29,26,256,33,15,30,148,39,2*72
$GAGSV,2,2,06,34,42,082,22,27,68,297,29,2*77
$GAGSV,2,1,06,30,54,087,34,36,15,032,25,29,26,256,21,15,30,148,39,7*76
$GAGSV,2,2,06,34,42,082,31,27,68,297,24,7*7D
$GNGGA,080449.02,,,,,0,15,0.8,,,,,,*77
$GNGGA,080449.04,,,,,0,15,0.8,,,,,,*71
$GNGGA,080449.06,,,,,0,15,0.8,,,,,,*73
$GNGGA,080449.08,,,,,0,15,0.8,,,,,,*7D
$GNGGA,080449.10,,,,,0,15,0.8,,,,,,*74
$GNGGA,080449.10,,,,,0,15,0.8,,,,,,*74
$GNRMC,080449.10,V,,,,,,,050426,0.0,E,N,V*77
$GNGST,080449.10,1.71,3.09,2.07,130.7854,2.534,2.679,3.150*40
$GNGGA,080449.12,,,,,0,15,0.8,,,,,,*76
$GNGGA,080449.14,,,,,0,15,0.8,,,,,,*70
$GNGGA,080449.16,,,,,0,15,0.8,,,,,,*72
$GNGGA,080449.18,,,,,0,15,0.8,,,,,,*7C
$GNGGA,080449.20,,,,,0,15,0.8,,,,,,*77
$GNGGA,080449.20,,,,,0,15,0.8,,,,,,*77
$GNRMC,080449.20,V,,,,,,,050426,0.0,E,N,V*74
$GNGST,080449.20,1.71,3.09,2.07,130.7854,2.534,2.679,3.150*43
$GNGGA,080449.22,,,,,0,15,0.8,,,,,,*75
$GNGGA,080449.24,,,,,0,15,0.8,,,,,,*73
$GNGGA,080449.26,,,,,0,15,0.8,,,,,,*71
$GNGGA,080449.28,,,,,0,15,0.8,,,,,,*7F
$GNGGA,080449.30,,,,,0,15,0.8,,,,,,*76
$GNGGA,080449.30,,,,,0,15,0.8,,,,,,*76
$GNRMC,080449.30,V,,,,,,,050426,0.0,E,N,V*75
$GNGST,080449.30,1.71,3.09,2.07,130.7854,2.534,2.679,3.150*42
$GNGGA,080449.32,,,,,0,15,0.8,,,,,,*74
$GNGGA,080449.34,,,,,0,15,0.8,,,,,,*72
$GNGGA,080449.36,,,,,0,15,0.8,,,,,,*70
$GNGGA,080449.38,,,,,0,15,0.8,,,,,,*7E
$GNGGA,080449.40,,,,,0,15,0.8,,,,,,*71
$GNGGA,080449.40,,,,,0,15,0.8,,,,,,*71
$GNRMC,080449.40,V,,,,,,,050426,0.0,E,N,V*72
$GNGST,080449.40,1.71,3.09,2.07,130.7854,2.534,2.679,3.150*45
$GNGGA,080449.42,,,,,0,15,0.8,,,,,,*73
$GNGGA,080449.44,,,,,0,15,0.8,,,,,,*75
$GNGGA,080449.46,,,,,0,15,0.8,,,,,,*77
$GNGGA,080449.48,,,,,0,15,0.8,,,,,,*79
$GNGGA,080449.50,,,,,0,15,0.8,,,,,,*70
$GNGGA,080449.50,,,,,0,15,0.8,,,,,,*70
$GNRMC,080449.50,V,,,,,,,050426,0.0,E,N,V*73
$GNGST,080449.50,1.71,3.09,2.07,130.7854,2.534,2.679,3.150*44
$GNGGA,080449.52,,,,,0,15,0.8,,,,,,*72
$GNGGA,080449.54,,,,,0,15,0.8,,,,,,*74
$GNGGA,080449.56,,,,,0,15,0.8,,,,,,*76
$GNGGA,080449.58,,,,,0,15,0.8,,,,,,*78
$GNGGA,080449.60,,,,,0,15,0.8,,,,,,*73
$GNGGA,080449.60,,,,,0,15,0.8,,,,,,*73
$GNRMC,080449.60,V,,,,,,,050426,0.0,E,N,V*70
$GNGST,080449.60,1.71,3.09,2.07,130.7854,2.534,2.679,3.150*47
$GNGGA,080449.62,,,,,0,15,0.8,,,,,,*71
$GNGGA,080449.64,,,,,0,15,0.8,,,,,,*77
$GNGGA,080449.66,,,,,0,15,0.8,,,,,,*75
$GNGGA,080449.68,,,,,0,15,0.8,,,,,,*7B
$GNGGA,080449.70,,,,,0,15,0.8,,,,,,*72
$GNGGA,080449.70,,,,,0,15,0.8,,,,,,*72
$GNRMC,080449.70,V,,,,,,,050426,0.0,E,N,V*71
$GNGST,080449.70,1.71,3.09,2.07,130.7854,2.534,2.679,3.150*46
$GNGGA,080449.72,,,,,0,15,0.8,,,,,,*70
$GNGGA,080449.74,,,,,0,15,0.8,,,,,,*76
$GNGGA,080449.76,,,,,0,15,0.8,,,,,,*74
$GNGGA,080449.78,,,,,0,15,0.8,,,,,,*7A
$GNGGA,080449.80,,,,,0,15,0.8,,,,,,*7D
$GNGGA,080449.80,,,,,0,15,0.8,,,,,,*7D
$GNRMC,080449.80,V,,,,,,,050426,0.0,E,N,V*7E
$GNGST,080449.80,1.71,3.09,2.07,130.7854,2.534,2.679,3.150*49
$GNGGA,080449.82,,,,,0,15,0.8,,,,,,*7F
$GNGGA,080449.84,,,,,0,15,0.8,,,,,,*79
$GNGGA,080449.86,,,,,0,15,0.8,,,,,,*7B
$GNGGA,080449.88,,,,,0,15,0.8,,,,,,*75
$GNGGA,080449.90,,,,,0,15,0.8,,,,,,*7C
$GNGGA,080449.90,,,,,0,15,0.8,,,,,,*7C
$GNRMC,080449.90,V,,,,,,,050426,0.0,E,N,V*7F
$GNGST,080449.90,1.71,3.09,2.07,130.7854,2.534,2.679,3.150*48
$GNGGA,080449.92,,,,,0,15,0.8,,,,,,*7E
$GNGGA,080449.94,,,,,0,15,0.8,,,,,,*78
$GNGGA,080449.96,,,,,0,15,0.8,,,,,,*7A
$GNGGA,080449.98,,,,,0,15,0.8,,,,,,*74
$GNGGA,080450.00,4901.87094423,N,00821.78710102,E,1,17,0.7,111.7444,M,48.3897,M,,*7B
$GNGGA,080450.00,4901.87094423,N,00821.78710102,E,1,17,0.7,111.7444,M,48.3897,M,,*7B
$GNGSA,M,3,11,12,18,25,29,31,,,,,,,1.3,0.7,1.0,1*3D
$GNGSA,M,3,15,27,29,30,34,36,,,,,,,1.3,0.7,1.0,3*30
$GNGSA,M,3,23,27,28,37,43,,,,,,,,1.3,0.7,1.0,4*31
$GNRMC,080450.00,A,4901.87094423,N,00821.78710102,E,0.175,163.6,050426,3.1,E,A,C*41
$GNGST,080450.00,3.89,3.09,2.04,127.7834,2.420,2.672,2.972*49
$GPGSV,2,1,07,11,24,045,33,29,84,199,23,25,62,099,34,18,15,177,39,1*62
$GPGSV,2,2,07,12,22,099,27,31,38,303,18,28,59,271,23,1*56
$GPGSV,2,1,07,11,24,045,22,29,84,199,31,25,62,099,25,18,15,177,40,4*6A
$GPGSV,2,2,07,12,22,099,23,31,38,303,21,28,59,271,24,4*5A
$GPGSV,1,1,04,11,24,045,32,25,62,099,25,18,15,177,41,28,59,271,30,8*63
$GBGSV,2,1,05,23,26,131,37,27,35,199,38,28,68,143,43,37,78,160,37,1*76
$GBGSV,2,2,05,43,32,053,30,1*40
$GBGSV,2,1,05,23,26,131,38,27,35,199,28,28,68,143,41,37,78,160,38,3*77
$GBGSV,2,2,05,43,32,053,32,3*40
$GBGSV,1,1,04,23,26,131,33,27,35,199,36,28,68,143,26,37,78,160,30,5*7E
$GBGSV,1,1,04,23,26,131,41,27,35,199,42,28,68,143,37,37,78,160,35,8*70
$GAGSV,2,1,06,30,54,087,31,36,15,032,20,29,26,256,33,15,30,148,38,1*72
$GAGSV,2,2,06,34,42,082,14,27,68,297,30,1*79
$GAGSV,2,1,06,30,54,087,38,36,15,032,18,29,26,256,32,15,30,148,39,2*73
$GAGSV,2,2,06,34,42,082,22,27,68,297,29,2*77
$GAGSV,2,1,06,30,54,087,34,36,15,032,25,29,26,256,21,15,30,148,39,7*76
$GAGSV,2,2,06,34,42,082,31,27,68,297,23,7*7A
$GNGGA,080450.02,,,,,0,17,0.7,,,,,,*72
$GNGGA,080450.04,,,,,0,17,0.7,,,,,,*74
$GNGGA,080450.06,,,,,0,17,0.7,,,,,,*76
$GNGGA,080450.08,,,,,0,17,0.7,,,,,,*78
$GNGGA,080450.10,,,,,0,17,0.7,,,,,,*71
$GNGGA,080450.10,,,,,0,17,0.7,,,,,,*71
$GNRMC,080450.10,V,,,,,,,050426,0.0,E,N,V*7F
$GNGST,080450.10,3.89,3.09,2.04,127.7834,2.420,2.672,2.972*48
$GNGGA,080450.12,,,,,0,17,0.7,,,,,,*73
$GNGGA,080450.14,,,,,0,17,0.7,,,,,,*75
$GNGGA,080450.16,,,,,0,17,0.7,,,,,,*77
$GNGGA,080450.18,,,,,0,17,0.7,,,,,,*79
$GNGGA,080450.20,,,,,0,17,0.7,,,,,,*72
$GNGGA,080450.20,,,,,0,17,0.7,,,,,,*72
$GNRMC,080450.20,V,,,,,,,050426,0.0,E,N,V*7C
$GNGST,080450.20,3.89,3.09,2.04,127.7834,2.420,2.672,2.972*4B
$GNGGA,080450.22,,,,,0,17,0.7,,,,,,*70
$GNGGA,080450.24,,,,,0,17,0.7,,,,,,*76
$GNGGA,080450.26,,,,,0,17,0.7,,,,,,*74
$GNGGA,080450.28,,,,,0,17,0.7,,,,,,*7A
$GNGGA,080450.30,,,,,0,17,0.7,,,,,,*73
$GNGGA,080450.30,,,,,0,17,0.7,,,,,,*73
$GNRMC,080450.30,V,,,,,,,050426,0.0,E,N,V*7D
$GNGST,080450.30,3.89,3.09,2.04,127.7834,2.420,2.672,2.972*4A
$GNGGA,080450.32,,,,,0,17,0.7,,,,,,*71
$GNGGA,080450.34,,,,,0,17,0.7,,,,,,*77
$GNGGA,080450.36,,,,,0,17,0.7,,,,,,*75
$GNGGA,080450.38,,,,,0,17,0.7,,,,,,*7B
$GNGGA,080450.40,,,,,0,17,0.7,,,,,,*74
$GNGGA,080450.40,,,,,0,17,0.7,,,,,,*74
$GNRMC,080450.40,V,,,,,,,050426,0.0,E,N,V*7A
$GNGST,080450.40,3.89,3.09,2.04,127.7834,2.420,2.672,2.972*4D
$GNGGA,080450.42,,,,,0,17,0.7,,,,,,*76
$GNGGA,080450.44,,,,,0,17,0.7,,,,,,*70
$GNGGA,080450.46,,,,,0,17,0.7,,,,,,*72
$GNGGA,080450.48,,,,,0,17,0.7,,,,,,*7C
$GNGGA,080450.50,,,,,0,17,0.7,,,,,,*75
$GNGGA,080450.50,,,,,0,17,0.7,,,,,,*75
$GNRMC,080450.50,V,,,,,,,050426,0.0,E,N,V*7B
$GNGST,080450.50,3.89,3.09,2.04,127.7834,2.420,2.672,2.972*4C
$GNGGA,080450.52,,,,,0,17,0.7,,,,,,*77
$GNGGA,080450.54,,,,,0,17,0.7,,,,,,*71
$GNGGA,080450.56,,,,,0,17,0.7,,,,,,*73
$GNGGA,080450.58,,,,,0,17,0.7,,,,,,*7D
$GNGGA,080450.60,,,,,0,17,0.7,,,,,,*76
$GNGGA,080450.60,,,,,0,17,0.7,,,,,,*76
$GNRMC,080450.60,V,,,,,,,050426,0.0,E,N,V*78
$GNGST,080450.60,3.89,3.09,2.04,127.7834,2.420,2.672,2.972*4F
$GNGGA,080450.62,,,,,0,17,0.7,,,,,,*74
$GNGGA,080450.64,,,,,0,17,0.7,,,,,,*72
$GNGGA,080450.66,,,,,0,17,0.7,,,,,,*70
$GNGGA,080450.68,,,,,0,17,0.7,,,,,,*7E
$GNGGA,080450.70,,,,,0,17,0.7,,,,,,*77
$GNGGA,080450.70,,,,,0,17,0.7,,,,,,*77
$GNRMC,080450.70,V,,,,,,,050426,0.0,E,N,V*79
$GNGST,080450.70,3.89,3.09,2.04,127.7834,2.420,2.672,2.972*4E
$GNGGA,080450.72,,,,,0,17,0.7,,,,,,*75
$GNGGA,080450.74,,,,,0,17,0.7,,,,,,*73
$GNGGA,080450.76,,,,,0,17,0.7,,,,,,*71
$GNGGA,080450.78,,,,,0,17,0.7,,,,,,*7F
$GNGGA,080450.80,,,,,0,17,0.7,,,,,,*78
$GNGGA,080450.80,,,,,0,17,0.7,,,,,,*78
$GNRMC,080450.80,V,,,,,,,050426,0.0,E,N,V*76
$GNGST,080450.80,3.89,3.09,2.04,127.7834,2.420,2.672,2.972*41
$GNGGA,080450.82,,,,,0,17,0.7,,,,,,*7A
$GNGGA,080450.84,,,,,0,17,0.7,,,,,,*7C
$GNGGA,080450.86,,,,,0,17,0.7,,,,,,*7E
$GNGGA,080450.88,,,,,0,17,0.7,,,,,,*70
$GNGGA,080450.90,,,,,0,17,0.7,,,,,,*79
$GNGGA,080450.90,,,,,0,17,0.7,,,,,,*79
$GNRMC,080450.90,V,,,,,,,050426,0.0,E,N,V*77
$GNGST,080450.90,3.89,3.09,2.04,127.7834,2.420,2.672,2.972*40
$GNGGA,080450.92,,,,,0,17,0.7,,,,,,*7B
$GNGGA,080450.94,,,,,0,17,0.7,,,,,,*7D
$GNGGA,080450.96,,,,,0,17,0.7,,,,,,*7F
$GNGGA,080450.98,,,,,0,17,0.7,,,,,,*71
$GNGGA,080451.00,4901.87096261,N,00821.78704062,E,1,17,0.8,111.5711,M,48.3897,M,,*74
$GNGGA,080451.00,4901.87096261,N,00821.78704062,E,1,17,0.8,111.5711,M,48.3897,M,,*74
$GNGSA,M,3,11,12,18,25,28,29,31,,,,,,1.4,0.8,1.1,1*3E
$GNGSA,M,3,15,27,29,30,34,,,,,,,,1.4,0.8,1.1,3*3C
$GNGSA,M,3,23,27,28,37,43,,,,,,,,1.4,0.8,1.1,4*38
$GNRMC,080451.00,A,4901.87096261,N,00821.78704062,E,0.121,296.0,050426,3.1,E,A,C*4E
$GNGST,080451.00,4.42,3.24,2.12,127.7416,2.527,2.796,3.059*40
$GPGSV,2,1,07,11,24,045,33,29,84,199,23,25,62,099,34,18,15,177,39,1*62
$GPGSV,2,2,07,12,22,099,27,31,38,303,19,28,59,271,23,1*57
$GPGSV,2,1,07,11,24,045,23,29,84,199,31,25,62,099,25,18,15,177,40,4*6B
$GPGSV,2,2,07,12,22,099,21,31,38,303,22,28,59,271,24,4*5B
$GPGSV,1,1,04,11,24,045,32,25,62,099,25,18,15,177,42,28,59,271,30,8*60
$GBGSV,2,1,05,23,26,131,37,27,35,199,39,28,68,143,43,37,78,160,37,1*77
$GBGSV,2,2,05,43,32,053,30,1*40
$GBGSV,2,1,05,23,26,131,38,27,35,199,28,28,68,143,41,37,78,160,38,3*77
$GBGSV,2,2,05,43,32,053,32,3*40
$GBGSV,1,1,04,23,26,131,33,27,35,199,36,28,68,143,27,37,78,160,31,5*7E
$GBGSV,1,1,04,23,26,131,42,27,35,199,42,28,68,143,37,37,78,160,35,8*73
$GAGSV,2,1,06,30,54,087,32,36,15,032,21,29,26,256,33,15,30,148,39,1*71
$GAGSV,2,2,06,34,42,082,15,27,68,297,31,1*79
$GAGSV,2,1,06,30,54,087,38,36,15,032,18,29,26,256,32,15,30,148,38,2*72
$GAGSV,2,2,06,34,42,082,22,27,68,297,28,2*76
$GAGSV,2,1,06,30,54,087,34,36,15,032,25,29,26,256,21,15,30,148,39,7*76
$GAGSV,2,2,06,34,42,082,31,27,68,297,23,7*7A
$GNGGA,080451.02,,,,,0,17,0.8,,,,,,*7C
$GNGGA,080451.04,,,,,0,17,0.8,,,,,,*7A
$GNGGA,080451.06,,,,,0,17,0.8,,,,,,*78
$GNGGA,080451.08,,,,,0,17,0.8,,,,,,*76
$GNGGA,080451.10,,,,,0,17,0.8,,,,,,*7F
$GNGGA,080451.10,,,,,0,17,0.8,,,,,,*7F
$GNRMC,080451.10,V,,,,,,,050426,0.0,E,N,V*7E
$GNGST,080451.10,4.42,3.24,2.12,127.7416,2.527,2.796,3.059*41
$GNGGA,080451.12,,,,,0,17,0.8,,,,,,*7D
$GNGGA,080451.14,,,,,0,17,0.8,,,,,,*7B
$GNGGA,080451.16,,,,,0,17,0.8,,,,,,*79
$GNGGA,080451.18,,,,,0,17,0.8,,,,,,*77
$GNGGA,080451.20,,,,,0,17,0.8,,,,,,*7C
$GNGGA,080451.20,,,,,0,17,0.8,,,,,,*7C
$GNRMC,080451.20,V,,,,,,,050426,0.0,E,N,V*7D
$GNGST,080451.20,4.42,3.24,2.12,127.7416,2.527,2.796,3.059*42
$GNGGA,080451.22,,,,,0,17,0.8,,,,,,*7E
$GNGGA,080451.24,,,,,0,17,0.8,,,,,,*78
$GNGGA,080451.26,,,,,0,17,0.8,,,,,,*7A
$GNGGA,080451.28,,,,,0,17,0.8,,,,,,*74
$GNGGA,080451.30,,,,,0,17,0.8,,,,,,*7D
$GNGGA,080451.30,,,,,0,17,0.8,,,,,,*7D
$GNRMC,080451.30,V,,,,,,,050426,0.0,E,N,V*7C
$GNGST,080451.30,4.42,3.24,2.12,127.7416,2.527,2.796,3.059*43
$GNGGA,080451.32,,,,,0,17,0.8,,,,,,*7F
$GNGGA,080451.34,,,,,0,17,0.8,,,,,,*79
$GNGGA,080451.36,,,,,0,17,0.8,,,,,,*7B
$GNGGA,080451.38,,,,,0,17,0.8,,,,,,*75
$GNGGA,080451.40,,,,,0,17,0.8,,,,,,*7A
$GNGGA,080451.40,,,,,0,17,0.8,,,,,,*7A
$GNRMC,080451.40,V,,,,,,,050426,0.0,E,N,V*7B
$GNGST,080451.40,4.42,3.24,2.12,127.7416,2.527,2.796,3.059*44
$GNGGA,080451.42,,,,,0,17,0.8,,,,,,*78
$GNGGA,080451.44,,,,,0,17,0.8,,,,,,*7E
$GNGGA,080451.46,,,,,0,17,0.8,,,,,,*7C
$GNGGA,080451.48,,,,,0,17,0.8,,,,,,*72
$GNGGA,080451.50,,,,,0,17,0.8,,,,,,*7B
$GNGGA,080451.50,,,,,0,17,0.8,,,,,,*7B
$GNRMC,080451.50,V,,,,,,,050426,0.0,E,N,V*7A
$GNGST,080451.50,4.42,3.24,2.12,127.7416,2.527,2.796,3.059*45
$GNGGA,080451.52,,,,,0,17,0.8,,,,,,*79
$GNGGA,080451.54,,,,,0,17,0.8,,,,,,*7F
$GNGGA,080451.56,,,,,0,17,0.8,,,,,,*7D
$GNGGA,080451.58,,,,,0,17,0.8,,,,,,*73
$GNGGA,080451.60,,,,,0,17,0.8,,,,,,*78
$GNGGA,080451.60,,,,,0,17,0.8,,,,,,*78
$GNRMC,080451.60,V,,,,,,,050426,0.0,E,N,V*79
$GNGST,080451.60,4.42,3.24,2.12,127.7416,2.527,2.796,3.059*46
$GNGGA,080451.62,,,,,0,17,0.8,,,,,,*7A
$GNGGA,080451.64,,,,,0,17,0.8,,,,,,*7C
$GNGGA,080451.66,,,,,0,17,0.8,,,,,,*7E
$GNGGA,080451.68,,,,,0,17,0.8,,,,,,*70
$GNGGA,080451.70,,,,,0,17,0.8,,,,,,*79
$GNGGA,080451.70,,,,,0,17,0.8,,,,,,*79
$GNRMC,080451.70,V,,,,,,,050426,0.0,E,N,V*78
$GNGST,080451.70,4.42,3.24,2.12,127.7416,2.527,2.796,3.059*47
$GNGGA,080451.72,,,,,0,17,0.8,,,,,,*7B
$GNGGA,080451.74,,,,,0,17,0.8,,,,,,*7D
$GNGGA,080451.76,,,,,0,17,0.8,,,,,,*7F
$GNGGA,080451.78,,,,,0,17,0.8,,,,,,*71
$GNGGA,080451.80,,,,,0,17,0.8,,,,,,*76
$GNGGA,080451.80,,,,,0,17,0.8,,,,,,*76
$GNRMC,080451.80,V,,,,,,,050426,0.0,E,N,V*77
$GNGST,080451.80,4.42,3.24,2.12,127.7416,2.527,2.796,3.059*48
$GNGGA,080451.82,,,,,0,17,0.8,,,,,,*74
$GNGGA,080451.84,,,,,0,17,0.8,,,,,,*72
$GNGGA,080451.86,,,,,0,17,0.8,,,,,,*70
$GNGGA,080451.88,,,,,0,17,0.8,,,,,,*7E
$GNGGA,080451.90,,,,,0,17,0.8,,,,,,*77
$GNGGA,080451.90,,,,,0,17,0.8,,,,,,*77
$GNRMC,080451.90,V,,,,,,,050426,0.0,E,N,V*76
$GNGST,080451.90,4.42,3.24,2.12,127.7416,2.527,2.796,3.059*49
$GNGGA,080451.92,,,,,0,17,0.8,,,,,,*75
$GNGGA,080451.94,,,,,0,17,0.8,,,,,,*73
$GNGGA,080451.96,,,,,0,17,0.8,,,,,,*71
$GNGGA,080451.98,,,,,0,17,0.8,,,,,,*7F
$GNGGA,080452.00,4901.87102189,N,00821.78693090,E,1,16,0.8,111.5354,M,48.3897,M,,*78
$GNGGA,080452.00,4901.87102189,N,00821.78693090,E,1,16,0.8,111.5354,M,48.3897,M,,*78
$GNGSA,M,3,11,12,18,25,29,31,,,,,,,1.4,0.8,1.2,1*37
$GNGSA,M,3,15,27,29,30,34,,,,,,,,1.4,0.8,1.2,3*3F
$GNGSA,M,3,23,27,28,37,43,,,,,,,,1.4,0.8,1.2,4*3B
$GNRMC,080452.00,A,4901.87102189,N,00821.78693090,E,0.276,309.2,050426,3.1,E,A,C*42
$GNGST,080452.00,3.55,3.25,2.13,128.5062,2.571,2.813,3.089*44
$GPGSV,2,1,07,11,24,045,34,29,84,199,22,25,62,099,34,18,15,177,39,1*64
$GPGSV,2,2,07,12,22,099,29,31,38,303,19,28,59,271,22,1*58
$GPGSV,2,1,07,11,24,045,22,29,84,199,31,25,62,099,25,18,15,177,40,4*6A
$GPGSV,2,2,07,12,22,099,23,31,38,303,21,28,59,271,23,4*5D
$GPGSV,1,1,04,11,24,045,32,25,62,099,25,18,15,177,42,28,59,271,29,8*68
$GBGSV,2,1,05,23,26,131,37,27,35,199,39,28,68,143,43,37,78,160,37,1*77
$GBGSV,2,2,05,43,32,053,31,1*41
$GBGSV,2,1,05,23,26,131,38,27,35,199,28,28,68,143,41,37,78,160,38,3*77
$GBGSV,2,2,05,43,32,053,32,3*40
$GBGSV,1,1,04,23,26,131,33,27,35,199,36,28,68,143,27,37,78,160,31,5*7E
$GBGSV,1,1,04,23,26,131,42,27,35,199,42,28,68,143,37,37,78,160,35,8*73
$GAGSV,2,1,06,30,54,087,32,36,15,032,21,29,26,256,33,15,30,148,39,1*71
$GAGSV,2,2,06,34,42,082,16,27,68,297,31,1*7A
$GAGSV,2,1,06,30,54,087,38,36,15,032,18,29,26,256,32,15,30,148,38,2*72
$GAGSV,2,2,06,34,42,082,23,27,68,297,28,2*77
